$GPGSV,3,1,10,08,36,227,44,10,46,163,43,16,,,25,18,21,084,35,0*5C
$GPGSV,3,2,10,21,,,18,23,,,31,26,07,344,23,27,67,256,44,0*68
$GPGSV,3,3,10,28,10,023,34,32,71,047,45,,,,,,,,,0*6C
$GLGSV,1,1,04,66,07,151,00,67,57,167,40,68,61,305,38,82,61,150,43,0*72
$GNRMC,115336.00,A,2334.7438,S,04628.8958,W,0.1,173.4,260323,,,A,V*3A
$GNVTG,173.4,T,,M,0.1,N,0.3,K,A*10
$GNZDA,115336.00,26,03,2023,,*7F
$GPGGA,115337.00,2334.7449,S,04628.8957,W,1,09,1.1,811.8,M,-3.5,M,,*70
$GNGLL,2334.7449,S,04628.8957,W,115337.00,A,A*79
$GNGSA,A,3,08,10,18,26,27,28,32,,,,,,2.0,1.1,1.6,1*3E
$GNGSA,A,3,67,82,,,,,,,,,,,2.0,1.1,1.6,2*3C
$GPGSV,3,1,10,08,36,227,45,10,46,163,44,16,,,25,18,21,084,34,0*5B
$GPGSV,3,2,10,21,,,27,23,,,33,26,07,344,21,27,67,256,44,0*64
$GPGSV,3,3,10,28,10,023,33,32,71,047,45,,,,,,,,,0*6B
$GLGSV,1,1,04,66,07,151,18,67,57,167,42,68,61,305,40,82,61,150,44,0*71
$GNRMC,115337.00,A,2334.7449,S,04628.8957,W,1.3,177.5,260323,,,A,V*34
$GNVTG,177.5,T,,M,1.3,N,2.4,K,A*13
$GNZDA,115337.00,26,03,2023,,*7E
$GPGGA,115338.00,2334.7464,S,04628.8957,W,1,09,1.1,811.2,M,-3.5,M,,*7A
$GNGLL,2334.7464,S,04628.8957,W,115338.00,A,A*79
$GNGSA,A,3,08,10,18,26,27,28,32,,,,,,2.0,1.1,1.6,1*3E
$GNGSA,A,3,67,82,,,,,,,,,,,2.0,1.1,1.6,2*3C
$GPGSV,3,1,10,08,36,227,44,10,46,163,42,16,,,23,18,21,084,30,0*5E
$GPGSV,3,2,10,21,,,20,23,,,31,26,07,344,22,27,67,256,43,0*65
$GPGSV,3,3,10,28,10,023,31,32,71,047,45,,,,,,,,,0*69
$GLGSV,1,1,04,66,07,151,,67,57,167,40,68,61,305,40,82,61,150,43,0*7D
$GNRMC,115338.00,A,2334.7464,S,04628.8957,W,5.6,182.2,260323,,,A,V*38
$GNVTG,182.2,T,,M,5.6,N,10.3,K,A*2B
$GNZDA,115338.00,26,03,2023,,*71
$GPGGA,115339.00,2334.7486,S,04628.8958,W,1,10,1.1,810.8,M,-3.5,M,,*7B
$GNGLL,2334.7486,S,04628.8958,W,115339.00,A,A*7B
$GNGSA,A,3,08,10,18,26,27,28,32,,,,,,1.8,1.1,1.4,1*37
$GNGSA,A,3,67,68,82,,,,,,,,,,1.8,1.1,1.4,2*3B
$GPGSV,3,1,10,08,36,227,45,10,46,163,41,16,,,24,18,21,084,31,0*5A
$GPGSV,3,2,10,21,,,21,23,,,27,26,07,344,22,27,67,256,43,0*63
$GPGSV,3,3,10,28,10,023,30,32,71,047,44,,,,,,,,,0*69
$GLGSV,1,1,04,66,07,151,,67,57,167,42,68,61,305,40,82,61,150,43,0*7F
$GNRMC,115339.00,A,2334.7486,S,04628.8958,W,7.1,186.2,260323,,,A,V*3B
$GNVTG,186.2,T,,M,7.1,N,13.2,K,A*28
$GNZDA,115339.00,26,03,2023,,*70
$GPGGA,115340.00,2334.7515,S,04628.8967,W,1,10,1.1,810.7,M,-3.5,M,,*7D
$GNGLL,2334.7515,S,04628.8967,W,115340.00,A,A*72
$GNGSA,A,3,08,10,18,26,27,28,32,,,,,,1.8,1.1,1.4,1*37
$GNGSA,A,3,67,68,82,,,,,,,,,,1.8,1.1,1.4,2*3B
$GPGSV,3,1,10,08,36,227,46,10,46,163,39,16,,,24,18,21,084,31,0*56
$GPGSV,3,2,10,21,,,18,23,,,26,26,07,344,23,27,67,256,44,0*6E
$GPGSV,3,3,10,28,10,023,28,32,71,047,45,,,,,,,,,0*61
$GLGSV,1,1,04,66,07,151,,67,57,167,41,68,61,305,40,82,61,150,41,0*7E
$GNRMC,115340.00,A,2334.7515,S,04628.8967,W,9.3,201.8,260323,,,A,V*38
$GNVTG,201.8,T,,M,9.3,N,17.2,K,A*26
$GNZDA,115340.00,26,03,2023,,*7E
$GPGGA,115341.00,2334.7544,S,04628.8989,W,1,10,1.1,810.6,M,-3.5,M,,*79
$GNGLL,2334.7544,S,04628.8989,W,115341.00,A,A*77
$GNGSA,A,3,08,10,18,26,27,28,32,,,,,,1.8,1.1,1.4,1*37
$GNGSA,A,3,67,68,82,,,,,,,,,,1.8,1.1,1.4,2*3B
$GPGSV,3,1,10,08,36,227,44,10,46,163,41,16,,,23,18,21,084,27,0*5B
$GPGSV,3,2,10,21,,,18,23,,,29,26,07,344,20,27,67,256,44,0*62
$GPGSV,3,3,10,28,10,023,29,32,71,047,45,,,,,,,,,0*60
$GLGSV,1,1,04,66,07,151,,67,57,167,40,68,61,305,39,82,61,150,42,0*72
$GNRMC,115341.00,A,2334.7544,S,04628.8989,W,11.2,219.6,260323,,,A,V*02
$GNVTG,219.6,T,,M,11.2,N,20.7,K,A*18
$GNZDA,115341.00,26,03,2023,,*7F
$GPGGA,115342.00,2334.7572,S,04628.9023,W,1,10,1.1,810.3,M,-3.5,M,,*72
$GNGLL,2334.7572,S,04628.9023,W,115342.00,A,A*79
$GNGSA,A,3,08,10,18,26,27,28,32,,,,,,1.8,1.1,1.4,1*37
$GNGSA,A,3,67,68,82,,,,,,,,,,1.8,1.1,1.4,2*3B
$GPGSV,3,1,10,08,36,227,42,10,46,163,39,16,,,30,18,21,084,29,0*5E
$GPGSV,3,2,10,21,,,19,23,,,28,26,07,344,21,27,67,256,45,0*62
$GPGSV,3,3,10,28,10,023,35,32,71,048,46,,,,,,,,,0*61
$GLGSV,1,1,04,66,07,151,,67,57,167,39,68,61,305,40,82,61,150,39,0*7E
$GNRMC,115342.00,A,2334.7572,S,04628.9023,W,13.5,231.1,260323,,,A,V*04
$GNVTG,231.1,T,,M,13.5,N,25.0,K,A*12
$GNZDA,115342.00,26,03,2023,,*7C
$GPGGA,115343.00,2334.7598,S,04628.9066,W,1,10,1.1,809.5,M,-3.5,M,,*78
$GNGLL,2334.7598,S,04628.9066,W,115343.00,A,A*7D
$GNGSA,A,3,08,10,18,26,27,28,32,,,,,,1.8,1.1,1.4,1*37
$GNGSA,A,3,67,68,82,,,,,,,,,,1.8,1.1,1.4,2*3B
$GPGSV,3,1,10,08,36,227,41,10,46,163,40,16,,,38,18,21,084,33,0*50
$GPGSV,3,2,10,21,,,17,23,,,30,26,07,344,20,27,67,256,45,0*64
$GPGSV,3,3,10,28,10,023,28,32,71,048,46,,,,,,,,,0*6D
$GLGSV,1,1,04,66,07,151,,67,57,167,37,68,61,305,40,82,61,150,38,0*71
$GNRMC,115343.00,A,2334.7598,S,04628.9066,W,16.5,238.3,260323,,,A,V*0E
$GNVTG,238.3,T,,M,16.5,N,30.5,K,A*1D
$GNZDA,115343.00,26,03,2023,,*7D
$GPGGA,115344.00,2334.7624,S,04628.9114,W,1,10,1.1,808.7,M,-3.5,M,,*7C
$GNGLL,2334.7624,S,04628.9114,W,115344.00,A,A*7A
$GNGSA,A,3,08,10,18,26,27,28,32,,,,,,1.8,1.1,1.4,1*37
$GNGSA,A,3,67,68,82,,,,,,,,,,1.8,1.1,1.4,2*3B
$GPGSV,3,1,10,08,36,227,41,10,46,163,40,16,,,38,18,21,084,30,0*53
$GPGSV,3,2,10,21,,,14,23,,,26,26,07,344,26,27,67,256,45,0*66
$GPGSV,3,3,10,28,10,023,26,32,71,048,45,,,,,,,,,0*60
$GLGSV,1,1,04,66,07,151,,67,57,167,37,68,61,305,40,82,61,150,39,0*70
$GNRMC,115344.00,A,2334.7624,S,04628.9114,W,17.5,240.7,260323,,,A,V*03
$GNVTG,240.7,T,,M,17.5,N,32.4,K,A*14
$GNZDA,115344.00,26,03,2023,,*7A
$GPGGA,115345.00,2334.7650,S,04628.9169,W,1,10,1.1,807.8,M,-3.5,M,,*74
$GNGLL,2334.7650,S,04628.9169,W,115345.00,A,A*72
$GNGSA,A,3,08,10,18,26,27,28,32,,,,,,1.8,1.1,1.4,1*37
$GNGSA,A,3,67,68,82,,,,,,,,,,1.8,1.1,1.4,2*3B
$GPGSV,3,1,10,08,36,227,40,10,46,163,40,16,,,37,18,21,084,33,0*5E
$GPGSV,3,2,10,21,,,15,23,,,30,26,07,344,23,27,67,256,44,0*64
$GPGSV,3,3,10,28,10,023,24,32,71,048,44,,,,,,,,,0*63
$GLGSV,1,1,04,66,07,151,,67,57,167,38,68,61,305,40,82,61,150,40,0*71
$GNRMC,115345.00,A,2334.7650,S,04628.9169,W,18.7,243.6,260323,,,A,V*04
$GNVTG,243.6,T,,M,18.7,N,34.7,K,A*1E
$GNZDA,115345.00,26,03,2023,,*7B
$GPGGA,115346.00,2334.7676,S,04628.9230,W,1,10,1.1,807.3,M,-3.5,M,,*77
$GNGLL,2334.7676,S,04628.9230,W,115346.00,A,A*7A
$GNGSA,A,3,08,10,18,26,27,28,32,,,,,,1.8,1.1,1.4,1*37
$GNGSA,A,3,67,68,82,,,,,,,,,,1.8,1.1,1.4,2*3B
$GPGSV,3,1,10,08,36,227,41,10,46,163,37,16,,,40,18,21,084,31,0*5D
$GPGSV,3,2,10,21,,,15,23,,,29,26,07,344,32,27,67,256,44,0*6C
$GPGSV,3,3,10,28,10,023,24,32,71,048,44,,,,,,,,,0*63
$GLGSV,1,1,04,66,07,151,,67,57,166,34,68,61,305,38,82,61,150,37,0*73
$GNRMC,115346.00,A,2334.7676,S,04628.9230,W,20.5,245.5,260323,,,A,V*00
$GNVTG,245.5,T,,M,20.5,N,38.0,K,A*19
$GNZDA,115346.00,26,03,2023,,*78
$GPGGA,115347.00,2334.7701,S,04628.9296,W,1,10,1.1,806.7,M,-3.5,M,,*7E
$GNGLL,2334.7701,S,04628.9296,W,115347.00,A,A*76
$GNGSA,A,3,08,10,18,26,27,28,32,,,,,,1.8,1.1,1.4,1*37
$GNGSA,A,3,67,68,82,,,,,,,,,,1.8,1.1,1.4,2*3B
$GPGSV,3,1,10,08,36,227,42,10,46,163,40,16,,,30,18,21,084,27,0*5E
$GPGSV,3,2,10,21,,,14,23,,,28,26,07,344,36,27,67,257,43,0*6E
$GPGSV,3,3,10,28,10,023,24,32,71,048,45,,,,,,,,,0*62
$GLGSV,1,1,04,66,07,151,,67,57,166,37,68,61,305,38,82,61,150,39,0*7E
$GNRMC,115347.00,A,2334.7701,S,04628.9296,W,22.5,248.2,260323,,,A,V*04
$GNVTG,248.2,T,,M,22.5,N,41.7,K,A*18
$GNZDA,115347.00,26,03,2023,,*79
$GPGGA,115348.00,2334.7724,S,04628.9364,W,1,10,1.1,805.5,M,-3.5,M,,*7B
$GNGLL,2334.7724,S,04628.9364,W,115348.00,A,A*72
$GNGSA,A,3,08,10,18,26,27,28,32,,,,,,1.8,1.1,1.4,1*37
$GNGSA,A,3,67,68,82,,,,,,,,,,1.8,1.1,1.4,2*3B
$GPGSV,3,1,10,08,36,227,34,10,46,163,40,16,,,24,18,21,084,34,0*58
$GPGSV,3,2,10,21,,,13,23,,,30,26,07,344,24,27,67,257,43,0*63
$GPGSV,3,3,10,28,10,023,29,32,71,048,45,,,,,,,,,0*6F
$GLGSV,1,1,04,66,07,151,,67,57,166,37,68,61,305,38,82,61,150,40,0*70
$GNRMC,115348.00,A,2334.7724,S,04628.9364,W,23.3,251.6,260323,,,A,V*0B
$GNVTG,251.6,T,,M,23.3,N,43.2,K,A*14
$GNZDA,115348.00,26,03,2023,,*76
$GPGGA,115349.00,2334.7747,S,04628.9437,W,1,10,1.1,804.3,M,-3.5,M,,*79
$GNGLL,2334.7747,S,04628.9437,W,115349.00,A,A*77
$GNGSA,A,3,08,10,18,26,27,28,32,,,,,,1.8,1.1,1.4,1*37
$GNGSA,A,3,67,68,82,,,,,,,,,,1.8,1.1,1.4,2*3B
$GPGSV,3,1,10,08,36,227,34,10,46,163,33,16,,,21,18,21,084,37,0*5A
$GPGSV,3,2,10,21,,,12,23,,,29,26,07,344,18,27,67,257,42,0*64
$GPGSV,3,3,10,28,10,023,26,32,71,048,43,,,,,,,,,0*66
$GLGSV,1,1,04,66,07,151,,67,57,166,32,68,61,305,38,82,61,150,33,0*71
$GNRMC,115349.00,A,2334.7747,S,04628.9437,W,24.6,252.3,260323,,,A,V*0A
$GNVTG,252.3,T,,M,24.6,N,45.5,K,A*11
$GNZDA,115349.00,26,03,2023,,*77
$GPGGA,115350.00,2334.7766,S,04628.9516,W,1,10,1.1,803.0,M,-3.5,M,,*74
$GNGLL,2334.7766,S,04628.9516,W,115350.00,A,A*7E
$GNGSA,A,3,08,10,18,26,27,28,32,,,,,,1.8,1.1,1.4,1*37
$GNGSA,A,3,67,68,82,,,,,,,,,,1.8,1.1,1.4,2*3B
$GPGSV,3,1,10,08,36,227,34,10,46,163,33,16,,,35,18,21,084,34,0*5C
$GPGSV,3,2,10,21,,,13,23,,,27,26,07,344,21,27,67,257,41,0*62
$GPGSV,3,3,10,28,10,023,21,32,71,048,44,,,,,,,,,0*66
$GLGSV,1,1,04,66,07,151,,67,57,166,31,68,61,305,39,82,61,150,33,0*73
$GNRMC,115350.00,A,2334.7766,S,04628.9516,W,25.9,255.2,260323,,,A,V*0B
$GNVTG,255.2,T,,M,25.9,N,48.0,K,A*11
$GNZDA,115350.00,26,03,2023,,*7F
$GPGGA,115351.00,2334.7782,S,04628.9598,W,1,10,1.1,802.4,M,-3.5,M,,*7C
$GNGLL,2334.7782,S,04628.9598,W,115351.00,A,A*73
$GNGSA,A,3,08,10,18,26,27,28,32,,,,,,1.8,1.1,1.4,1*37
$GNGSA,A,3,67,68,82,,,,,,,,,,1.8,1.1,1.4,2*3B
$GPGSV,3,1,10,08,36,227,32,10,46,163,34,16,,,36,18,21,084,32,0*58
$GPGSV,3,2,10,21,,,10,23,,,25,26,07,344,22,27,67,257,42,0*63
$GPGSV,3,3,10,28,10,023,21,32,71,048,44,,,,,,,,,0*66
$GLGSV,1,1,04,66,07,151,,67,57,166,31,68,61,305,38,82,61,150,34,0*75
$GNRMC,115351.00,A,2334.7782,S,04628.9598,W,27.0,258.2,260323,,,A,V*00
$GNVTG,258.2,T,,M,27.0,N,50.0,K,A*1E
$GNZDA,115351.00,26,03,2023,,*7E
$GPGGA,115352.00,2334.7796,S,04628.9685,W,1,10,1.1,801.7,M,-3.5,M,,*75
$GNGLL,2334.7796,S,04628.9685,W,115352.00,A,A*7A
$GNGSA,A,3,08,10,18,26,27,28,32,,,,,,1.8,1.1,1.4,1*37
$GNGSA,A,3,67,68,82,,,,,,,,,,1.8,1.1,1.4,2*3B
$GPGSV,3,1,10,08,36,227,30,10,46,163,34,16,,,39,18,21,084,36,0*51
$GPGSV,3,2,10,21,,,13,23,,,24,26,07,344,23,27,67,257,42,0*60
$GPGSV,3,3,10,28,10,023,19,32,71,048,44,,,,,,,,,0*6D
$GLGSV,1,1,04,66,07,151,,67,57,166,34,68,61,305,37,82,61,150,37,0*7C
$GNRMC,115352.00,A,2334.7796,S,04628.9685,W,28.2,261.2,260323,,,A,V*0E
$GNVTG,261.2,T,,M,28.2,N,52.3,K,A*18
$GNZDA,115352.00,26,03,2023,,*7D
$GPGGA,115353.00,2334.7805,S,04628.9774,W,1,10,1.1,800.7,M,-3.5,M,,*7F
$GNGLL,2334.7805,S,04628.9774,W,115353.00,A,A*71
$GNGSA,A,3,08,10,18,26,27,28,32,,,,,,1.8,1.1,1.4,1*37
$GNGSA,A,3,67,68,82,,,,,,,,,,1.8,1.1,1.4,2*3B
$GPGSV,3,1,10,08,36,227,31,10,46,163,32,16,,,41,18,21,084,39,0*56
$GPGSV,3,2,10,21,,,15,23,,,25,26,07,344,22,27,67,257,42,0*66
$GPGSV,3,3,10,28,10,023,23,32,71,048,44,,,,,,,,,0*64
$GLGSV,1,1,04,66,07,151,,67,57,166,32,68,61,305,37,82,61,150,39,0*74
$GNRMC,115353.00,A,2334.7805,S,04628.9774,W,28.8,264.4,260323,,,A,V*0C
$GNVTG,264.4,T,,M,28.8,N,53.3,K,A*10
$GNZDA,115353.00,26,03,2023,,*7C
$GPGGA,115354.00,2334.7811,S,04628.9865,W,1,10,1.1,799.9,M,-3.5,M,,*73
$GNGLL,2334.7811,S,04628.9865,W,115354.00,A,A*7C
$GNGSA,A,3,08,10,18,26,27,28,32,,,,,,1.8,1.1,1.4,1*37
$GNGSA,A,3,67,68,82,,,,,,,,,,1.8,1.1,1.4,2*3B
$GPGSV,3,1,10,08,36,227,27,10,46,163,31,16,,,42,18,21,084,38,0*50
$GPGSV,3,2,10,21,,,00,23,,,29,26,07,344,33,27,67,257,38,0*63
$GPGSV,3,3,10,28,10,023,22,32,71,048,43,,,,,,,,,0*62
$GLGSV,1,1,04,66,07,151,,67,57,166,34,68,61,305,36,82,61,150,36,0*7C
$GNRMC,115354.00,A,2334.7811,S,04628.9865,W,29.5,266.3,260323,,,A,V*08
$GNVTG,266.3,T,,M,29.5,N,54.7,K,A*1A
$GNZDA,115354.00,26,03,2023,,*7B
$GPGGA,115355.00,2334.7810,S,04628.9960,W,1,10,1.1,799.0,M,-3.5,M,,*7E
$GNGLL,2334.7810,S,04628.9960,W,115355.00,A,A*78
$GNGSA,A,3,08,10,18,26,27,28,32,,,,,,1.8,1.1,1.4,1*37
$GNGSA,A,3,67,68,82,,,,,,,,,,1.8,1.1,1.4,2*3B
$GPGSV,3,1,10,08,36,227,26,10,46,163,27,16,,,41,18,21,084,36,0*5B
$GPGSV,3,2,10,21,,,00,23,,,27,26,07,344,37,27,67,257,37,0*66
$GPGSV,3,3,10,28,10,023,29,32,71,048,41,,,,,,,,,0*6B
$GLGSV,1,1,04,66,07,151,,67,57,166,26,68,61,305,36,82,61,150,32,0*7B
$GNRMC,115355.00,A,2334.7810,S,04628.9960,W,30.2,271.6,260323,,,A,V*00
$GNVTG,271.6,T,,M,30.2,N,55.9,K,A*19
$GNZDA,115355.00,26,03,2023,,*7A
$GPGGA,115356.00,2334.7805,S,04629.0058,W,1,10,1.1,797.8,M,-3.5,M,,*75
$GNGLL,2334.7805,S,04629.0058,W,115356.00,A,A*75
$GNGSA,A,3,08,10,18,26,27,28,32,,,,,,1.8,1.1,1.4,1*37
$GNGSA,A,3,67,68,82,,,,,,,,,,1.8,1.1,1.4,2*3B
$GPGSV,3,1,10,08,36,227,31,10,46,163,30,16,,,40,18,21,084,37,0*5B
$GPGSV,3,2,10,21,,,00,23,,,28,26,07,344,39,27,67,257,40,0*67
$GPGSV,3,3,10,28,10,023,33,32,71,048,43,,,,,,,,,0*62
$GLGSV,1,1,04,66,07,151,,67,57,166,30,68,61,305,38,82,61,150,35,0*75
$GNRMC,115356.00,A,2334.7805,S,04629.0058,W,31.5,272.8,260323,,,A,V*06
$GNVTG,272.8,T,,M,31.5,N,58.4,K,A*12
$GNZDA,115356.00,26,03,2023,,*79
$GPGGA,115357.00,2334.7799,S,04629.0161,W,1,10,1.1,796.8,M,-3.5,M,,*74
$GNGLL,2334.7799,S,04629.0161,W,115357.00,A,A*75
$GNGSA,A,3,08,10,18,26,27,28,32,,,,,,1.8,1.1,1.4,1*37
$GNGSA,A,3,67,68,82,,,,,,,,,,1.8,1.1,1.4,2*3B
$GPGSV,3,1,10,08,36,227,32,10,46,163,32,16,,,41,18,21,084,38,0*54
$GPGSV,3,2,10,21,,,00,23,,,24,26,07,344,31,27,67,257,38,0*6C
$GPGSV,3,3,10,28,10,023,30,32,71,048,43,,,,,,,,,0*61
$GLGSV,1,1,04,66,07,151,,67,57,166,30,68,61,305,39,82,61,150,33,0*72
$GNRMC,115357.00,A,2334.7799,S,04629.0161,W,32.7,273.1,260323,,,A,V*0F
$GNVTG,273.1,T,,M,32.7,N,60.6,K,A*12
$GNZDA,115357.00,26,03,2023,,*78
$GPGGA,115358.00,2334.7793,S,04629.0267,W,1,10,1.1,796.0,M,-3.5,M,,*7C
$GNGLL,2334.7793,S,04629.0267,W,115358.00,A,A*75
$GNGSA,A,3,08,10,18,26,27,28,32,,,,,,1.8,1.1,1.4,1*37
$GNGSA,A,3,67,68,82,,,,,,,,,,1.8,1.1,1.4,2*3B
$GPGSV,3,1,10,08,36,227,37,10,46,163,38,16,,,43,18,21,084,39,0*58
$GPGSV,3,2,10,21,,,00,23,,,24,26,07,344,24,27,67,257,41,0*66
$GPGSV,3,3,10,28,10,023,27,32,71,048,44,,,,,,,,,0*60
$GLGSV,1,1,04,66,07,151,,67,57,166,34,68,61,305,39,82,61,150,36,0*73
$GNRMC,115358.00,A,2334.7793,S,04629.0267,W,34.1,273.4,260323,,,A,V*0A
$GNVTG,273.4,T,,M,34.1,N,63.1,K,A*13
$GNZDA,115358.00,26,03,2023,,*77
$GPGGA,115359.00,2334.7786,S,04629.0376,W,1,10,1.1,794.9,M,-3.5,M,,*73
$GNGLL,2334.7786,S,04629.0376,W,115359.00,A,A*71
$GNGSA,A,3,08,10,18,26,27,28,32,,,,,,1.8,1.1,1.4,1*37
$GNGSA,A,3,67,68,82,,,,,,,,,,1.8,1.1,1.4,2*3B
$GPGSV,3,1,10,08,36,227,39,10,46,163,42,16,,,41,18,21,084,38,0*58
$GPGSV,3,2,10,21,,,00,23,,,26,26,07,344,25,27,67,257,42,0*66
$GPGSV,3,3,10,28,10,023,22,32,71,048,44,,,,,,,,,0*65
$GLGSV,1,1,04,66,07,151,,67,57,166,36,68,61,305,39,82,61,150,39,0*7E
$GNRMC,115359.00,A,2334.7786,S,04629.0376,W,35.2,273.1,260323,,,A,V*09
$GNVTG,273.1,T,,M,35.2,N,65.1,K,A*12
$GNZDA,115359.00,26,03,2023,,*76
$GPGGA,115400.00,2334.7782,S,04629.0490,W,1,10,1.1,793.6,M,-3.5,M,,*7B
$GNGLL,2334.7782,S,04629.0490,W,115400.00,A,A*71
$GNGSA,A,3,08,10,18,26,27,28,32,,,,,,1.8,1.1,1.4,1*37
$GNGSA,A,3,67,68,82,,,,,,,,,,1.8,1.1,1.4,2*3B
$GPGSV,3,1,10,08,36,227,36,10,46,163,43,16,,,42,18,21,084,38,0*55
$GPGSV,3,2,10,21,,,00,23,,,24,26,07,344,21,27,67,257,43,0*61
$GPGSV,3,3,10,28,10,023,21,32,71,048,45,,,,,,,,,0*67
$GLGSV,1,1,04,66,07,151,,67,57,166,36,68,61,305,38,82,61,150,39,0*7F
$GNRMC,115400.00,A,2334.7782,S,04629.0490,W,36.0,271.6,260323,,,A,V*0D
$GNVTG,271.6,T,,M,36.0,N,66.7,K,A*13
$GNZDA,115400.00,26,03,2023,,*7D
$GPGGA,115401.00,2334.7781,S,04629.0606,W,1,10,1.1,792.2,M,-3.5,M,,*71
$GNGLL,2334.7781,S,04629.0606,W,115401.00,A,A*7E
$GNGSA,A,3,08,10,18,26,27,28,32,,,,,,1.8,1.1,1.4,1*37
$GNGSA,A,3,67,68,82,,,,,,,,,,1.8,1.1,1.4,2*3B
$GPGSV,3,1,10,08,36,227,37,10,46,163,39,16,,,38,18,21,084,38,0*54
$GPGSV,3,2,10,21,,,00,23,,,27,26,07,344,22,27,67,257,43,0*61
$GPGSV,3,3,10,28,10,023,20,32,71,048,44,,,,,,,,,0*67
$GLGSV,1,1,04,66,07,151,,67,57,166,34,68,61,305,38,82,61,150,35,0*71
$GNRMC,115401.00,A,2334.7781,S,04629.0606,W,37.3,270.3,260323,,,A,V*04
$GNVTG,270.3,T,,M,37.3,N,69.1,K,A*1C
$GNZDA,115401.00,26,03,2023,,*7C
$GPGGA,115402.00,2334.7781,S,04629.0727,W,1,10,1.1,790.8,M,-3.5,M,,*78
$GNGLL,2334.7781,S,04629.0727,W,115402.00,A,A*7F
$GNGSA,A,3,08,10,18,26,27,28,32,,,,,,1.8,1.1,1.4,1*37
$GNGSA,A,3,67,68,82,,,,,,,,,,1.8,1.1,1.4,2*3B
$GPGSV,3,1,10,08,36,227,36,10,46,163,38,16,,,30,18,21,084,39,0*5D
$GPGSV,3,2,10,21,,,00,23,,,29,26,07,344,20,27,67,257,43,0*6D
$GPGSV,3,3,10,28,10,023,22,32,71,048,45,,,,,,,,,0*64
$GLGSV,1,1,04,66,07,151,,67,57,166,36,68,61,305,38,82,61,150,37,0*71
$GNRMC,115402.00,A,2334.7781,S,04629.0727,W,38.6,269.3,260323,,,A,V*07
$GNVTG,269.3,T,,M,38.6,N,71.4,K,A*12
$GNZDA,115402.00,26,03,2023,,*7F
$GPGGA,115403.00,2334.7785,S,04629.0851,W,1,10,1.1,789.3,M,-3.5,M,,*70
$GNGLL,2334.7785,S,04629.0851,W,115403.00,A,A*74
$GNGSA,A,3,08,10,18,26,27,28,32,,,,,,1.8,1.1,1.4,1*37
$GNGSA,A,3,67,68,82,,,,,,,,,,1.8,1.1,1.4,2*3B
$GPGSV,3,1,10,08,36,227,36,10,46,163,38,16,,,36,18,21,084,40,0*55
$GPGSV,3,2,10,21,,,13,23,,,28,26,07,344,24,27,67,257,43,0*6A
$GPGSV,3,3,10,28,10,023,21,32,71,048,45,,,,,,,,,0*67
$GLGSV,1,1,04,66,07,151,,67,57,166,37,68,61,305,39,82,61,150,37,0*71
$GNRMC,115403.00,A,2334.7785,S,04629.0851,W,39.9,267.7,260323,,,A,V*08
$GNVTG,267.7,T,,M,39.9,N,73.9,K,A*19
$GNZDA,115403.00,26,03,2023,,*7E
$GPGGA,115404.00,2334.7791,S,04629.0977,W,1,10,1.1,787.9,M,-3.5,M,,*73
$GNGLL,2334.7791,S,04629.0977,W,115404.00,A,A*73
$GNGSA,A,3,08,10,18,26,27,28,32,,,,,,1.8,1.1,1.4,1*37
$GNGSA,A,3,67,68,82,,,,,,,,,,1.8,1.1,1.4,2*3B
$GPGSV,3,1,10,08,36,227,36,10,46,163,34,16,,,40,18,21,084,38,0*57
$GPGSV,3,2,10,21,,,13,23,,,27,26,07,344,20,27,67,257,40,0*62
$GPGSV,3,3,10,28,10,023,21,32,71,048,44,,,,,,,,,0*66
$GLGSV,1,1,04,66,07,151,,67,57,166,35,68,61,305,39,82,61,150,36,0*72
$GNRMC,115404.00,A,2334.7791,S,04629.0977,W,41.0,266.5,260323,,,A,V*0A
$GNVTG,266.5,T,,M,41.0,N,75.8,K,A*1B
$GNZDA,115404.00,26,03,2023,,*79
$GPGGA,115405.00,2334.7803,S,04629.1105,W,1,10,1.1,786.4,M,-3.5,M,,*76
$GNGLL,2334.7803,S,04629.1105,W,115405.00,A,A*7A
$GNGSA,A,3,08,10,18,26,27,28,32,,,,,,1.8,1.1,1.4,1*37
$GNGSA,A,3,67,68,82,,,,,,,,,,1.8,1.1,1.4,2*3B
$GPGSV,3,1,10,08,36,227,38,10,46,163,40,16,,,40,18,21,084,39,0*5B
$GPGSV,3,2,10,21,,,00,23,,,29,26,07,344,21,27,67,257,43,0*6C
$GPGSV,3,3,10,28,10,023,23,32,71,048,45,,,,,,,,,0*65
$GLGSV,1,1,04,66,07,151,,67,57,166,39,68,61,305,39,82,61,150,40,0*7F
$GNRMC,115405.00,A,2334.7803,S,04629.1105,W,41.6,263.3,260323,,,A,V*06
$GNVTG,263.3,T,,M,41.6,N,77.1,K,A*15
$GNZDA,115405.00,26,03,2023,,*78
$GPGGA,115406.00,2334.7820,S,04629.1232,W,1,10,1.1,784.7,M,-3.5,M,,*72
$GNGLL,2334.7820,S,04629.1232,W,115406.00,A,A*7F
$GNGSA,A,3,08,10,18,26,27,28,32,,,,,,1.8,1.1,1.4,1*37
$GNGSA,A,3,67,68,82,,,,,,,,,,1.8,1.1,1.4,2*3B
$GPGSV,3,1,10,08,36,227,36,10,46,163,39,16,,,38,18,21,084,40,0*5A
$GPGSV,3,2,10,21,,,00,23,,,27,26,07,344,20,27,67,257,43,0*63
$GPGSV,3,3,10,28,10,023,21,32,71,048,45,,,,,,,,,0*67
$GLGSV,1,1,04,66,07,151,,67,57,166,37,68,61,305,39,82,61,150,40,0*71
$GNRMC,115406.00,A,2334.7820,S,04629.1232,W,42.0,261.3,260323,,,A,V*04
$GNVTG,261.3,T,,M,42.0,N,77.7,K,A*14
$GNZDA,115406.00,26,03,2023,,*7B
$GPGGA,115407.00,2334.7841,S,04629.1357,W,1,10,1.1,783.1,M,-3.5,M,,*77
$GNGLL,2334.7841,S,04629.1357,W,115407.00,A,A*7B
$GNGSA,A,3,08,10,18,26,27,28,32,,,,,,1.8,1.1,1.4,1*37
$GNGSA,A,3,67,68,82,,,,,,,,,,1.8,1.1,1.4,2*3B
$GPGSV,3,1,10,08,36,227,36,10,46,163,40,16,,,36,18,21,084,38,0*55
$GPGSV,3,2,10,21,,,00,23,,,25,26,07,344,23,27,67,257,43,0*62
$GPGSV,3,3,10,28,10,023,21,32,71,048,45,,,,,,,,,0*67
$GLGSV,1,1,04,66,07,151,,67,57,166,38,68,61,305,39,82,61,150,40,0*7E
$GNRMC,115407.00,A,2334.7841,S,04629.1357,W,42.0,259.2,260323,,,A,V*0A
$GNVTG,259.2,T,,M,42.0,N,77.7,K,A*1E
$GNZDA,115407.00,26,03,2023,,*7A
$GPGGA,115408.00,2334.7866,S,04629.1474,W,1,10,1.1,781.9,M,-3.5,M,,*71
$GNGLL,2334.7866,S,04629.1474,W,115408.00,A,A*77
$GNGSA,A,3,08,10,18,26,27,28,32,,,,,,1.8,1.1,1.4,1*37
$GNGSA,A,3,67,68,82,,,,,,,,,,1.8,1.1,1.4,2*3B
$GPGSV,3,1,10,08,36,227,35,10,46,163,36,16,,,37,18,21,084,37,0*59
$GPGSV,3,2,10,21,,,00,23,,,25,26,07,344,19,27,67,257,41,0*69
$GPGSV,3,3,10,28,10,023,20,32,71,048,43,,,,,,,,,0*60
$GLGSV,1,1,04,66,07,151,,67,57,166,34,68,61,305,38,82,61,150,37,0*73
$GNRMC,115408.00,A,2334.7866,S,04629.1474,W,41.0,256.6,260323,,,A,V*0E
$GNVTG,256.6,T,,M,41.0,N,76.0,K,A*10
$GNZDA,115408.00,26,03,2023,,*75
$GPGGA,115409.00,2334.7892,S,04629.1582,W,1,10,1.1,780.5,M,-3.5,M,,*7E
$GNGLL,2334.7892,S,04629.1582,W,115409.00,A,A*75
$GNGSA,A,3,08,10,18,26,27,28,32,,,,,,1.8,1.1,1.4,1*37
$GNGSA,A,3,67,68,82,,,,,,,,,,1.8,1.1,1.4,2*3B
$GPGSV,3,1,10,08,36,227,31,10,46,163,34,16,,,34,18,21,084,35,0*5E
$GPGSV,3,2,10,21,,,00,23,,,23,26,07,344,19,27,67,257,39,0*60
$GPGSV,3,3,10,28,10,023,18,32,71,048,42,,,,,,,,,0*6A
$GLGSV,1,1,04,66,07,151,,67,57,166,31,68,61,305,38,82,61,150,31,0*70
$GNRMC,115409.00,A,2334.7892,S,04629.1582,W,37.5,256.0,260323,,,A,V*0E
$GNVTG,256.0,T,,M,37.5,N,69.4,K,A*18
$GNZDA,115409.00,26,03,2023,,*74
$GPGGA,115410.00,2334.7916,S,04629.1683,W,1,10,1.1,779.1,M,-3.5,M,,*7B
$GNGLL,2334.7916,S,04629.1683,W,115410.00,A,A*72
$GNGSA,A,3,08,10,18,26,27,28,32,,,,,,1.8,1.1,1.4,1*37
$GNGSA,A,3,67,68,82,,,,,,,,,,1.8,1.1,1.4,2*3B
$GPGSV,3,1,10,08,36,227,36,10,46,163,35,16,,,34,18,21,084,29,0*55
$GPGSV,3,2,10,21,,,22,23,,,25,26,07,344,20,27,67,257,41,0*63
$GPGSV,3,3,10,28,10,023,20,32,71,048,43,,,,,,,,,0*60
$GLGSV,1,1,04,66,07,151,,67,57,166,32,68,61,305,38,82,61,150,33,0*71
$GNRMC,115410.00,A,2334.7916,S,04629.1683,W,35.5,255.5,260323,,,A,V*0D
$GNVTG,255.5,T,,M,35.5,N,65.7,K,A*13
$GNZDA,115410.00,26,03,2023,,*7C
$GPGGA,115411.00,2334.7941,S,04629.1778,W,1,10,1.1,777.7,M,-3.5,M,,*75
$GNGLL,2334.7941,S,04629.1778,W,115411.00,A,A*74
$GNGSA,A,3,08,10,18,26,27,28,32,,,,,,1.8,1.1,1.4,1*37
$GNGSA,A,3,67,68,82,,,,,,,,,,1.8,1.1,1.4,2*3B
$GPGSV,3,1,10,08,36,227,35,10,46,163,35,16,,,26,18,21,084,33,0*5E
$GPGSV,3,2,10,21,,,23,23,,,24,26,07,344,22,27,67,257,42,0*62
$GPGSV,3,3,10,28,10,023,22,32,71,048,43,,,,,,,,,0*62
$GLGSV,1,1,04,66,07,151,,67,57,166,32,68,61,305,38,82,61,150,33,0*71
$GNRMC,115411.00,A,2334.7941,S,04629.1778,W,33.3,254.5,260323,,,A,V*0A
$GNVTG,254.5,T,,M,33.3,N,61.6,K,A*17
$GNZDA,115411.00,26,03,2023,,*7D
$GPGGA,115412.00,2334.7966,S,04629.1866,W,1,10,1.1,776.6,M,-3.5,M,,*73
$GNGLL,2334.7966,S,04629.1866,W,115412.00,A,A*72
$GNGSA,A,3,08,10,18,26,27,28,32,,,,,,1.8,1.1,1.4,1*37
$GNGSA,A,3,67,68,82,,,,,,,,,,1.8,1.1,1.4,2*3B
$GPGSV,3,1,10,08,36,227,32,10,46,163,35,16,,,35,18,21,084,31,0*59
$GPGSV,3,2,10,21,,,25,23,,,25,26,07,344,18,27,67,257,43,0*6D
$GPGSV,3,3,10,28,10,023,21,32,71,048,44,,,,,,,,,0*66
$GLGSV,1,1,04,66,07,151,,67,57,166,32,68,61,305,38,82,61,150,35,0*77
$GNRMC,115412.00,A,2334.7966,S,04629.1866,W,31.8,253.6,260323,,,A,V*01
$GNVTG,253.6,T,,M,31.8,N,58.9,K,A*1F
$GNZDA,115412.00,26,03,2023,,*7E
$GPGGA,115413.00,2334.7990,S,04629.1948,W,1,10,1.1,775.6,M,-3.5,M,,*75
$GNGLL,2334.7990,S,04629.1948,W,115413.00,A,A*77
$GNGSA,A,3,08,10,18,26,27,28,32,,,,,,1.8,1.1,1.4,1*37
$GNGSA,A,3,67,68,82,,,,,,,,,,1.8,1.1,1.4,2*3B
$GPGSV,3,1,10,08,36,227,34,10,46,163,31,16,,,39,18,21,084,35,0*53
$GPGSV,3,2,10,21,,,28,23,,,27,26,07,344,22,27,67,257,41,0*69
$GPGSV,3,3,10,28,10,023,22,32,71,048,43,,,,,,,,,0*62
$GLGSV,1,1,04,66,07,151,,67,57,166,27,68,61,305,38,82,61,150,29,0*7E
$GNRMC,115413.00,A,2334.7990,S,04629.1948,W,29.6,252.3,260323,,,A,V*07
$GNVTG,252.3,T,,M,29.6,N,54.9,K,A*10
$GNZDA,115413.00,26,03,2023,,*7F
$GPGGA,115414.00,2334.8011,S,04629.2020,W,1,10,1.1,775.1,M,-3.5,M,,*7E
$GNGLL,2334.8011,S,04629.2020,W,115414.00,A,A*7B
$GNGSA,A,3,08,10,18,26,27,28,32,,,,,,1.8,1.1,1.4,1*37
$GNGSA,A,3,67,68,82,,,,,,,,,,1.8,1.1,1.4,2*3B
$GPGSV,3,1,10,08,36,227,39,10,46,163,38,16,,,39,18,21,084,28,0*5B
$GPGSV,3,2,10,21,,,28,23,,,26,26,07,344,31,27,67,257,43,0*68
$GPGSV,3,3,10,28,10,023,21,32,71,048,45,,,,,,,,,0*67
$GLGSV,1,1,04,66,07,151,,67,57,166,35,68,61,305,39,82,61,150,36,0*72
$GNRMC,115414.00,A,2334.8011,S,04629.2020,W,27.1,252.7,260323,,,A,V*06
$GNVTG,252.7,T,,M,27.1,N,50.2,K,A*12
$GNZDA,115414.00,26,03,2023,,*78
$GPGGA,115415.00,2334.8030,S,04629.2084,W,1,10,1.1,774.7,M,-3.5,M,,*75
$GNGLL,2334.8030,S,04629.2084,W,115415.00,A,A*77
$GNGSA,A,3,08,10,18,26,27,28,32,,,,,,1.8,1.1,1.4,1*37
$GNGSA,A,3,67,68,82,,,,,,,,,,1.8,1.1,1.4,2*3B
$GPGSV,3,1,10,08,36,227,29,10,46,163,39,16,,,39,18,21,084,30,0*52
$GPGSV,3,2,10,21,,,28,23,,,26,26,07,344,23,27,67,257,43,0*6B
$GPGSV,3,3,10,28,10,023,22,32,71,048,45,,,,,,,,,0*64
$GLGSV,1,1,04,66,07,151,,67,57,166,35,68,61,305,37,82,61,150,38,0*72
$GNRMC,115415.00,A,2334.8030,S,04629.2084,W,22.6,253.5,260323,,,A,V*0B
$GNVTG,253.5,T,,M,22.6,N,41.9,K,A*18
$GNZDA,115415.00,26,03,2023,,*79
$GPGGA,115416.00,2334.8046,S,04629.2148,W,1,10,1.1,773.8,M,-3.5,M,,*7E
$GNGLL,2334.8046,S,04629.2148,W,115416.00,A,A*74
$GNGSA,A,3,08,10,18,26,27,28,32,,,,,,1.8,1.1,1.4,1*37
$GNGSA,A,3,67,68,82,,,,,,,,,,1.8,1.1,1.4,2*3B
$GPGSV,3,1,10,08,36,227,33,10,46,163,31,16,,,30,18,21,084,35,0*5D
$GPGSV,3,2,10,21,,,27,23,,,24,26,07,344,23,27,67,257,36,0*64
$GPGSV,3,3,10,28,10,023,24,32,71,048,39,,,,,,,,,0*69
$GLGSV,1,1,04,66,07,151,,67,57,166,31,68,61,305,36,82,61,150,30,0*7F
$GNRMC,115416.00,A,2334.8046,S,04629.2148,W,22.0,255.2,260323,,,A,V*0F
$GNVTG,255.2,T,,M,22.0,N,40.7,K,A*10
$GNZDA,115416.00,26,03,2023,,*7A
$GPGGA,115417.00,2334.8063,S,04629.2211,W,1,10,1.1,773.1,M,-3.5,M,,*7E
$GNGLL,2334.8063,S,04629.2211,W,115417.00,A,A*7D
$GNGSA,A,3,08,10,18,26,27,28,32,,,,,,1.8,1.1,1.4,1*37
$GNGSA,A,3,67,68,82,,,,,,,,,,1.8,1.1,1.4,2*3B
$GPGSV,3,1,10,08,36,227,37,10,46,163,32,16,,,36,18,21,084,31,0*58
$GPGSV,3,2,10,21,,,25,23,,,22,26,07,344,21,27,67,257,40,0*63
$GPGSV,3,3,10,28,10,023,22,32,71,048,41,,,,,,,,,0*60
$GLGSV,1,1,04,66,07,151,,67,57,166,32,68,61,305,37,82,61,150,34,0*79
$GNRMC,115417.00,A,2334.8063,S,04629.2211,W,22.0,252.8,260323,,,A,V*0B
$GNVTG,252.8,T,,M,22.0,N,40.7,K,A*1D
$GNZDA,115417.00,26,03,2023,,*7B
$GPGGA,115418.00,2334.8083,S,04629.2275,W,1,10,1.1,772.5,M,-3.5,M,,*78
$GNGLL,2334.8083,S,04629.2275,W,115418.00,A,A*7E
$GNGSA,A,3,08,10,18,26,27,28,32,,,,,,1.8,1.1,1.4,1*37
$GNGSA,A,3,67,68,82,,,,,,,,,,1.8,1.1,1.4,2*3B
$GPGSV,3,1,10,08,36,227,36,10,46,163,35,16,,,31,18,21,084,27,0*5E
$GPGSV,3,2,10,21,,,29,23,,,24,26,07,344,20,27,67,257,42,0*6A
$GPGSV,3,3,10,28,10,023,22,32,71,048,43,,,,,,,,,0*62
$GLGSV,1,1,04,66,07,151,,67,57,166,31,68,61,305,38,82,61,150,33,0*72
$GNRMC,115418.00,A,2334.8083,S,04629.2275,W,22.2,252.5,260323,,,A,V*07
$GNVTG,252.5,T,,M,22.2,N,41.0,K,A*14
$GNZDA,115418.00,26,03,2023,,*74
$GPGGA,115419.00,2334.8101,S,04629.2342,W,1,10,1.1,771.5,M,-3.5,M,,*74
$GNGLL,2334.8101,S,04629.2342,W,115419.00,A,A*71
$GNGSA,A,3,08,10,18,26,27,28,32,,,,,,1.8,1.1,1.4,1*37
$GNGSA,A,3,67,68,82,,,,,,,,,,1.8,1.1,1.4,2*3B
$GPGSV,3,1,10,08,36,227,39,10,46,163,36,16,,,31,18,21,084,29,0*5C
$GPGSV,3,2,10,21,,,29,23,,,27,26,07,344,18,27,67,257,42,0*62
$GPGSV,3,3,10,28,10,023,23,32,71,048,43,,,,,,,,,0*63
$GLGSV,1,1,04,66,07,151,,67,57,166,32,68,61,305,38,82,61,150,35,0*77
$GNRMC,115419.00,A,2334.8101,S,04629.2342,W,22.8,253.7,260323,,,A,V*01
$GNVTG,253.7,T,,M,22.8,N,42.3,K,A*1D
$GNZDA,115419.00,26,03,2023,,*75
$GPGGA,115420.00,2334.8119,S,04629.2411,W,1,10,1.1,770.7,M,-3.5,M,,*75
$GNGLL,2334.8119,S,04629.2411,W,115420.00,A,A*73
$GNGSA,A,3,08,10,18,26,27,28,32,,,,,,1.8,1.1,1.4,1*37
$GNGSA,A,3,67,68,82,,,,,,,,,,1.8,1.1,1.4,2*3B
$GPGSV,3,1,10,08,36,227,38,10,46,163,36,16,,,31,18,21,084,31,0*54
$GPGSV,3,2,10,21,,,25,23,,,31,26,07,344,11,27,67,257,43,0*61
$GPGSV,3,3,10,28,10,023,22,32,71,048,44,,,,,,,,,0*65
$GLGSV,1,1,04,66,07,151,,67,57,166,32,68,61,305,35,82,61,150,35,0*7A
$GNRMC,115420.00,A,2334.8119,S,04629.2411,W,23.6,254.6,260323,,,A,V*0A
$GNVTG,254.6,T,,M,23.6,N,43.7,K,A*11
$GNZDA,115420.00,26,03,2023,,*7F
$GPGGA,115421.00,2334.8137,S,04629.2483,W,1,10,1.1,769.5,M,-3.5,M,,*79
$GNGLL,2334.8137,S,04629.2483,W,115421.00,A,A*75
$GNGSA,A,3,08,10,18,26,27,28,32,,,,,,1.8,1.1,1.4,1*37
$GNGSA,A,3,67,68,82,,,,,,,,,,1.8,1.1,1.4,2*3B
$GPGSV,3,1,10,08,36,227,40,10,46,163,39,16,,,35,18,21,084,34,0*55
$GPGSV,3,2,10,21,,,27,23,,,36,26,07,344,15,27,67,257,43,0*60
$GPGSV,3,3,10,28,10,023,26,32,71,048,44,,,,,,,,,0*61
$GLGSV,1,1,04,66,07,151,00,67,57,166,36,68,61,305,32,82,61,150,38,0*74
$GNRMC,115421.00,A,2334.8137,S,04629.2483,W,23.6,254.4,260323,,,A,V*0E
$GNVTG,254.4,T,,M,23.6,N,43.7,K,A*13
$GNZDA,115421.00,26,03,2023,,*7E
$GPGGA,115422.00,2334.8159,S,04629.2556,W,1,10,1.1,768.4,M,-3.5,M,,*7B
$GNGLL,2334.8159,S,04629.2556,W,115422.00,A,A*77
$GNGSA,A,3,08,10,18,26,27,28,32,,,,,,1.8,1.1,1.4,1*37
$GNGSA,A,3,67,68,82,,,,,,,,,,1.8,1.1,1.4,2*3B
$GPGSV,3,1,10,08,36,227,39,10,46,163,37,16,,,37,18,21,084,36,0*55
$GPGSV,3,2,10,21,,,28,23,,,32,26,07,344,12,27,67,257,43,0*6C
$GPGSV,3,3,10,28,10,023,25,32,71,048,44,,,,,,,,,0*62
$GLGSV,1,1,04,66,07,151,00,67,57,166,35,68,61,305,37,82,61,150,37,0*7D
$GNRMC,115422.00,A,2334.8159,S,04629.2556,W,25.1,253.0,260323,,,A,V*0E
$GNVTG,253.0,T,,M,25.1,N,46.5,K,A*16
$GNZDA,115422.00,26,03,2023,,*7D
$GPGGA,115423.00,2334.8181,S,04629.2632,W,1,10,1.1,767.4,M,-3.5,M,,*71
$GNGLL,2334.8181,S,04629.2632,W,115423.00,A,A*72
$GNGSA,A,3,08,10,18,26,27,28,32,,,,,,1.8,1.1,1.4,1*37
$GNGSA,A,3,67,68,82,,,,,,,,,,1.8,1.1,1.4,2*3B
$GPGSV,3,1,10,08,36,227,41,10,46,163,40,16,,,37,18,21,084,36,0*5A
$GPGSV,3,2,10,21,,,28,23,,,30,26,07,344,12,27,67,257,44,0*69
$GPGSV,3,3,10,28,10,023,32,32,71,048,45,,,,,,,,,0*65
$GLGSV,2,1,05,66,07,151,00,67,57,166,35,68,61,305,38,81,39,066,,0*7E
$GLGSV,2,2,05,82,61,149,37,,,,,,,,,,,,,0*49
$GNRMC,115423.00,A,2334.8181,S,04629.2632,W,25.9,252.3,260323,,,A,V*01
$GNVTG,252.3,T,,M,25.9,N,47.9,K,A*11
$GNZDA,115423.00,26,03,2023,,*7C
$GPGGA,115424.00,2334.8205,S,04629.2711,W,1,10,1.1,766.3,M,-3.5,M,,*7F
$GNGLL,2334.8205,S,04629.2711,W,115424.00,A,A*7A
$GNGSA,A,3,08,10,18,26,27,28,32,,,,,,1.8,1.1,1.4,1*37
$GNGSA,A,3,67,68,82,,,,,,,,,,1.8,1.1,1.4,2*3B
$GPGSV,3,1,10,08,36,227,41,10,46,163,39,16,,,32,18,21,084,38,0*5F
$GPGSV,3,2,10,21,,,28,23,,,28,26,07,344,10,27,67,257,44,0*62
$GPGSV,3,3,10,28,10,023,34,32,71,049,44,,,,,,,,,0*63
$GLGSV,2,1,05,66,07,151,00,67,57,166,34,68,61,305,38,81,39,066,,0*7F
$GLGSV,2,2,05,82,61,149,36,,,,,,,,,,,,,0*48
$GNRMC,115424.00,A,2334.8205,S,04629.2711,W,26.8,251.8,260323,,,A,V*03
$GNVTG,251.8,T,,M,26.8,N,49.6,K,A*1A
$GNZDA,115424.00,26,03,2023,,*7B
$GPGGA,115425.00,2334.8232,S,04629.2793,W,1,10,1.1,765.4,M,-3.5,M,,*74
$GNGLL,2334.8232,S,04629.2793,W,115425.00,A,A*75
$GNGSA,A,3,08,10,18,26,27,28,32,,,,,,1.8,1.1,1.4,1*37
$GNGSA,A,3,67,68,82,,,,,,,,,,1.8,1.1,1.4,2*3B
$GPGSV,3,1,10,08,36,228,42,10,46,163,35,16,,,25,18,21,084,36,0*57
$GPGSV,3,2,10,21,,,28,23,,,33,26,07,344,17,27,67,257,44,0*6F
$GPGSV,3,3,10,28,10,023,27,32,71,049,44,,,,,,,,,0*61
$GLGSV,2,1,05,66,07,151,11,67,57,166,32,68,61,305,38,81,39,066,,0*79
$GLGSV,2,2,05,82,61,149,36,,,,,,,,,,,,,0*48
$GNRMC,115425.00,A,2334.8232,S,04629.2793,W,28.1,250.4,260323,,,A,V*06
$GNVTG,250.4,T,,M,28.1,N,52.1,K,A*1D
$GNZDA,115425.00,26,03,2023,,*7A
$GPGGA,115426.00,2334.8262,S,04629.2875,W,1,10,1.1,764.6,M,-3.5,M,,*76
$GNGLL,2334.8262,S,04629.2875,W,115426.00,A,A*74
$GNGSA,A,3,08,10,18,26,27,28,32,,,,,,1.8,1.1,1.4,1*37
$GNGSA,A,3,67,68,82,,,,,,,,,,1.8,1.1,1.4,2*3B
$GPGSV,3,1,10,08,36,228,42,10,46,163,35,16,,,33,18,21,084,38,0*5E
$GPGSV,3,2,10,21,,,31,23,,,27,26,07,344,11,27,67,257,44,0*64
$GPGSV,3,3,10,28,10,023,22,32,71,049,44,,,,,,,,,0*64
$GLGSV,2,1,05,66,07,151,00,67,57,166,32,68,61,305,39,81,39,066,,0*78
$GLGSV,2,2,05,82,61,149,36,,,,,,,,,,,,,0*48
$GNRMC,115426.00,A,2334.8262,S,04629.2875,W,29.0,248.1,260323,,,A,V*0B
$GNVTG,248.1,T,,M,29.0,N,53.7,K,A*16
$GNZDA,115426.00,26,03,2023,,*79
$GPGGA,115427.00,2334.8295,S,04629.2957,W,1,10,1.1,763.9,M,-3.5,M,,*76
$GNGLL,2334.8295,S,04629.2957,W,115427.00,A,A*7C
$GNGSA,A,3,08,10,18,26,27,28,32,,,,,,1.8,1.1,1.4,1*37
$GNGSA,A,3,67,68,82,,,,,,,,,,1.8,1.1,1.4,2*3B
$GPGSV,3,1,10,08,36,228,42,10,46,163,33,16,,,37,18,21,084,38,0*5C
$GPGSV,3,2,10,21,,,31,23,,,27,26,07,344,10,27,67,257,44,0*65
$GPGSV,3,3,10,28,10,023,21,32,72,049,44,,,,,,,,,0*64
$GLGSV,2,1,05,66,07,151,00,67,57,166,34,68,61,305,39,81,39,066,,0*7E
$GLGSV,2,2,05,82,61,149,36,,,,,,,,,,,,,0*48
$GNRMC,115427.00,A,2334.8295,S,04629.2957,W,29.3,247.4,260323,,,A,V*0A
$GNVTG,247.4,T,,M,29.3,N,54.3,K,A*1C
$GNZDA,115427.00,26,03,2023,,*78
$GPGGA,115428.00,2334.8329,S,04629.3038,W,1,10,1.1,763.2,M,-3.5,M,,*75
$GNGLL,2334.8329,S,04629.3038,W,115428.00,A,A*74
$GNGSA,A,3,08,10,18,26,27,28,32,,,,,,1.8,1.1,1.4,1*37
$GNGSA,A,3,67,68,82,,,,,,,,,,1.8,1.1,1.4,2*3B
$GPGSV,3,1,10,08,36,228,41,10,46,163,37,16,,,29,18,21,084,38,0*54
$GPGSV,3,2,10,21,,,29,23,,,25,26,07,344,12,27,67,257,44,0*6C
$GPGSV,3,3,10,28,10,023,23,32,72,049,44,,,,,,,,,0*66
$GLGSV,2,1,05,66,07,151,00,67,57,166,37,68,61,305,39,81,39,066,,0*7D
$GLGSV,2,2,05,82,61,149,37,,,,,,,,,,,,,0*49
$GNRMC,115428.00,A,2334.8329,S,04629.3038,W,29.5,246.1,260323,,,A,V*00
$GNVTG,246.1,T,,M,29.5,N,54.7,K,A*1A
$GNZDA,115428.00,26,03,2023,,*77
$GPGGA,115429.00,2334.8364,S,04629.3120,W,1,10,1.1,762.5,M,-3.5,M,,*73
$GNGLL,2334.8364,S,04629.3120,W,115429.00,A,A*74
$GNGSA,A,3,08,10,18,26,27,28,32,,,,,,1.8,1.1,1.4,1*37
$GNGSA,A,3,67,68,82,,,,,,,,,,1.8,1.1,1.4,2*3B
$GPGSV,3,1,10,08,36,228,42,10,46,163,39,16,,,27,18,21,084,39,0*56
$GPGSV,3,2,10,21,,,28,23,,,28,26,07,344,11,27,67,257,44,0*63
$GPGSV,3,3,10,28,10,023,23,32,72,049,44,,,,,,,,,0*66
$GLGSV,2,1,05,66,07,151,00,67,57,166,39,68,61,305,39,81,39,066,,0*73
$GLGSV,2,2,05,82,61,149,39,,,,,,,,,,,,,0*47
$GNRMC,115429.00,A,2334.8364,S,04629.3120,W,29.7,245.1,260323,,,A,V*01
$GNVTG,245.1,T,,M,29.7,N,55.0,K,A*1D
$GNZDA,115429.00,26,03,2023,,*76
$GPGGA,115430.00,2334.8401,S,04629.3200,W,1,10,1.1,762.1,M,-3.5,M,,*7A
$GNGLL,2334.8401,S,04629.3200,W,115430.00,A,A*79
$GNGSA,A,3,08,10,18,26,27,28,32,,,,,,1.8,1.1,1.4,1*37
$GNGSA,A,3,67,68,82,,,,,,,,,,1.8,1.1,1.4,2*3B
$GPGSV,3,1,10,08,36,228,36,10,46,163,39,16,,,26,18,21,084,35,0*58
$GPGSV,3,2,10,21,,,30,23,,,23,26,07,344,10,27,67,257,44,0*60
$GPGSV,3,3,10,28,10,023,24,32,72,049,44,,,,,,,,,0*61
$GLGSV,2,1,06,66,07,151,00,67,57,166,38,68,61,305,39,81,39,065,,0*72
$GLGSV,2,2,06,82,61,149,37,83,28,200,,,,,,,,,,0*79
$GNRMC,115430.00,A,2334.8401,S,04629.3200,W,29.0,243.9,260323,,,A,V*05
$GNVTG,243.9,T,,M,29.0,N,53.7,K,A*15
$GNZDA,115430.00,26,03,2023,,*7E
$GPGGA,115431.00,2334.8439,S,04629.3280,W,1,09,1.2,761.6,M,-3.5,M,,*77
$GNGLL,2334.8439,S,04629.3280,W,115431.00,A,A*7B
$GNGSA,A,3,08,10,18,27,28,32,,,,,,,2.0,1.2,1.6,1*39
$GNGSA,A,3,67,68,82,,,,,,,,,,2.0,1.2,1.6,2*31
$GPGSV,3,1,10,08,36,228,39,10,46,163,39,16,,,21,18,21,084,31,0*54
$GPGSV,3,2,10,21,,,31,23,,,23,26,07,344,00,27,67,257,43,0*67
$GPGSV,3,3,10,28,10,023,25,32,72,049,43,,,,,,,,,0*67
$GLGSV,2,1,06,66,07,151,00,67,57,166,37,68,61,305,39,81,39,065,,0*7D
$GLGSV,2,2,06,82,61,149,38,83,28,200,,,,,,,,,,0*76
$GNRMC,115431.00,A,2334.8439,S,04629.3280,W,29.3,242.9,260323,,,A,V*05
$GNVTG,242.9,T,,M,29.3,N,54.3,K,A*14
$GNZDA,115431.00,26,03,2023,,*7F
$GPGGA,115432.00,2334.8480,S,04629.3360,W,1,09,1.2,761.2,M,-3.5,M,,*7D
$GNGLL,2334.8480,S,04629.3360,W,115432.00,A,A*75
$GNGSA,A,3,08,10,18,27,28,32,,,,,,,2.0,1.2,1.6,1*39
$GNGSA,A,3,67,68,82,,,,,,,,,,2.0,1.2,1.6,2*31
$GPGSV,3,1,10,08,36,228,39,10,46,163,39,16,,,20,18,21,084,29,0*5C
$GPGSV,3,2,10,21,,,34,23,,,25,26,07,344,00,27,67,257,44,0*63
$GPGSV,3,3,10,28,10,023,24,32,72,049,44,,,,,,,,,0*61
$GLGSV,2,1,06,66,07,151,00,67,57,166,39,68,61,305,39,81,39,065,,0*73
$GLGSV,2,2,06,82,61,149,40,83,28,200,,,,,,,,,,0*79
$GNRMC,115432.00,A,2334.8480,S,04629.3360,W,29.5,241.4,260323,,,A,V*03
$GNVTG,241.4,T,,M,29.5,N,54.7,K,A*18
$GNZDA,115432.00,26,03,2023,,*7C
$GPGGA,115433.00,2334.8521,S,04629.3440,W,1,09,1.2,760.5,M,-3.5,M,,*75
$GNGLL,2334.8521,S,04629.3440,W,115433.00,A,A*7B
$GNGSA,A,3,08,10,18,27,28,32,,,,,,,2.0,1.2,1.6,1*39
$GNGSA,A,3,67,68,82,,,,,,,,,,2.0,1.2,1.6,2*31
$GPGSV,3,1,10,08,36,228,39,10,46,163,41,16,,,25,18,21,084,29,0*56
$GPGSV,3,2,10,21,,,34,23,,,24,26,07,344,00,27,67,257,44,0*62
$GPGSV,3,3,10,28,10,023,24,32,72,049,44,,,,,,,,,0*61
$GLGSV,2,1,06,66,07,151,00,67,57,166,38,68,61,304,38,81,39,065,,0*72
$GLGSV,2,2,06,82,61,149,39,83,28,200,,,,,,,,,,0*77
$GNRMC,115433.00,A,2334.8521,S,04629.3440,W,29.7,239.9,260323,,,A,V*0D
$GNVTG,239.9,T,,M,29.7,N,54.9,K,A*16
$GNZDA,115433.00,26,03,2023,,*7D
$GPGGA,115434.00,2334.8566,S,04629.3518,W,1,09,1.2,759.9,M,-3.5,M,,*7B
$GNGLL,2334.8566,S,04629.3518,W,115434.00,A,A*73
$GNGSA,A,3,08,10,18,27,28,32,,,,,,,2.0,1.2,1.6,1*39
$GNGSA,A,3,67,68,82,,,,,,,,,,2.0,1.2,1.6,2*31
$GPGSV,3,1,10,08,36,228,39,10,46,163,41,16,,,25,18,21,084,32,0*5C
$GPGSV,3,2,10,21,,,34,23,,,23,26,07,344,00,27,67,258,44,0*6A
$GPGSV,3,3,10,28,10,023,23,32,72,049,44,,,,,,,,,0*66
$GLGSV,2,1,06,66,07,151,00,67,57,166,39,68,61,304,38,81,39,065,,0*73
$GLGSV,2,2,06,82,61,149,39,83,28,200,,,,,,,,,,0*77
$GNRMC,115434.00,A,2334.8566,S,04629.3518,W,29.7,238.5,260323,,,A,V*08
$GNVTG,238.5,T,,M,29.7,N,55.0,K,A*13
$GNZDA,115434.00,26,03,2023,,*7A
$GPGGA,115435.00,2334.8613,S,04629.3597,W,1,09,1.2,759.2,M,-3.5,M,,*77
$GNGLL,2334.8613,S,04629.3597,W,115435.00,A,A*74
$GNGSA,A,3,08,10,18,27,28,32,,,,,,,2.0,1.2,1.6,1*39
$GNGSA,A,3,67,68,82,,,,,,,,,,2.0,1.2,1.6,2*31
$GPGSV,3,1,10,08,36,228,40,10,46,163,38,16,,,22,18,21,084,31,0*58
$GPGSV,3,2,10,21,,,33,23,,,19,26,07,344,00,27,67,258,43,0*63
$GPGSV,3,3,10,28,10,023,28,32,72,049,44,,,,,,,,,0*6D
$GLGSV,2,1,06,66,07,151,00,67,57,166,38,68,61,304,38,81,39,065,,0*72
$GLGSV,2,2,06,82,61,149,38,83,28,200,,,,,,,,,,0*76
$GNRMC,115435.00,A,2334.8613,S,04629.3597,W,29.8,237.1,260323,,,A,V*0B
$GNVTG,237.1,T,,M,29.8,N,55.2,K,A*15
$GNZDA,115435.00,26,03,2023,,*7B
$GPGGA,115436.00,2334.8663,S,04629.3674,W,1,09,1.2,758.6,M,-3.5,M,,*78
$GNGLL,2334.8663,S,04629.3674,W,115436.00,A,A*7E
$GNGSA,A,3,08,10,18,27,28,32,,,,,,,2.0,1.2,1.6,1*39
$GNGSA,A,3,67,68,82,,,,,,,,,,2.0,1.2,1.6,2*31
$GPGSV,3,1,10,08,36,228,41,10,46,163,38,16,,,19,18,21,084,34,0*54
$GPGSV,3,2,10,21,,,36,23,,,21,26,07,344,00,27,67,258,43,0*6D
$GPGSV,3,3,10,28,10,023,31,32,72,049,44,,,,,,,,,0*65
$GLGSV,2,1,06,66,07,151,00,67,57,166,36,68,61,304,38,81,39,065,,0*7C
$GLGSV,2,2,06,82,61,149,37,83,28,200,,,,,,,,,,0*79
$GNRMC,115436.00,A,2334.8663,S,04629.3674,W,29.9,235.4,260323,,,A,V*07
$GNVTG,235.4,T,,M,29.9,N,55.5,K,A*14
$GNZDA,115436.00,26,03,2023,,*78
$GPGGA,115437.00,2334.8714,S,04629.3750,W,1,09,1.2,758.1,M,-3.5,M,,*78
$GNGLL,2334.8714,S,04629.3750,W,115437.00,A,A*79
$GNGSA,A,3,08,10,18,27,28,32,,,,,,,2.0,1.2,1.6,1*39
$GNGSA,A,3,67,68,82,,,,,,,,,,2.0,1.2,1.6,2*31
$GPGSV,3,1,10,08,36,228,42,10,46,163,35,16,,,15,18,21,084,36,0*54
$GPGSV,3,2,10,21,,,37,23,,,19,26,07,344,00,27,67,258,43,0*67
$GPGSV,3,3,10,28,10,023,28,32,72,049,43,,,,,,,,,0*6A
$GLGSV,2,1,06,66,07,151,,67,57,166,34,68,61,304,37,81,39,065,,0*71
$GLGSV,2,2,06,82,61,149,36,83,28,200,,,,,,,,,,0*78
$GNRMC,115437.00,A,2334.8714,S,04629.3750,W,30.1,233.9,260323,,,A,V*0B
$GNVTG,233.9,T,,M,30.1,N,55.8,K,A*12
$GNZDA,115437.00,26,03,2023,,*79
$GPGGA,115438.00,2334.8766,S,04629.3825,W,1,09,1.2,757.7,M,-3.5,M,,*76
$GNGLL,2334.8766,S,04629.3825,W,115438.00,A,A*7E
$GNGSA,A,3,08,10,18,27,28,32,,,,,,,2.0,1.2,1.6,1*39
$GNGSA,A,3,67,68,82,,,,,,,,,,2.0,1.2,1.6,2*31
$GPGSV,3,1,10,08,36,228,43,10,46,163,40,16,,,16,18,21,084,37,0*55
$GPGSV,3,2,10,21,,,34,23,,,30,26,07,344,00,27,67,258,43,0*6F
$GPGSV,3,3,10,28,10,023,23,32,72,049,44,,,,,,,,,0*66
$GLGSV,2,1,06,66,07,151,,67,57,166,36,68,61,304,38,81,39,065,,0*7C
$GLGSV,2,2,06,82,61,149,37,83,28,200,,,,,,,,,,0*79
$GNRMC,115438.00,A,2334.8766,S,04629.3825,W,30.2,233.7,260323,,,A,V*01
$GNVTG,233.7,T,,M,30.2,N,55.9,K,A*1E
$GNZDA,115438.00,26,03,2023,,*76
$GPGGA,115439.00,2334.8816,S,04629.3898,W,1,10,1.1,757.4,M,-3.5,M,,*71
$GNGLL,2334.8816,S,04629.3898,W,115439.00,A,A*71
$GNGSA,A,3,08,10,18,27,28,32,,,,,,,1.9,1.1,1.6,1*30
$GNGSA,A,3,67,68,81,82,,,,,,,,,1.9,1.1,1.6,2*31
$GPGSV,3,1,10,08,36,228,43,10,46,163,41,16,,,20,18,21,084,40,0*51
$GPGSV,3,2,10,21,,,32,23,,,33,26,07,344,00,27,67,258,43,0*6A
$GPGSV,3,3,10,28,10,023,21,32,72,049,44,,,,,,,,,0*64
$GLGSV,2,1,06,66,07,151,,67,57,166,36,68,61,304,38,81,39,065,37,0*78
$GLGSV,2,2,06,82,61,149,38,83,28,200,,,,,,,,,,0*76
$GNRMC,115439.00,A,2334.8816,S,04629.3898,W,30.2,233.4,260323,,,A,V*0D
$GNVTG,233.4,T,,M,30.2,N,55.9,K,A*1D
$GNZDA,115439.00,26,03,2023,,*77
$GPGGA,115440.00,2334.8866,S,04629.3969,W,1,10,1.1,757.2,M,-3.5,M,,*71
$GNGLL,2334.8866,S,04629.3969,W,115440.00,A,A*77
$GNGSA,A,3,08,10,18,27,28,32,,,,,,,1.9,1.1,1.6,1*30
$GNGSA,A,3,67,68,81,82,,,,,,,,,1.9,1.1,1.6,2*31
$GPGSV,3,1,10,08,36,228,43,10,46,163,41,16,,,21,18,21,084,40,0*50
$GPGSV,3,2,10,21,,,35,23,,,29,26,07,344,00,27,67,258,43,0*66
$GPGSV,3,3,10,28,10,023,18,32,72,049,44,,,,,,,,,0*6E
$GLGSV,2,1,06,66,07,151,,67,57,166,36,68,61,304,38,81,39,065,36,0*79
$GLGSV,2,2,06,82,61,149,38,83,28,200,,,,,,,,,,0*76
$GNRMC,115440.00,A,2334.8866,S,04629.3969,W,30.2,232.9,260323,,,A,V*07
$GNVTG,232.9,T,,M,30.2,N,55.9,K,A*11
$GNZDA,115440.00,26,03,2023,,*79
$GPGGA,115441.00,2334.8914,S,04629.4035,W,1,10,1.1,756.8,M,-3.5,M,,*78
$GNGLL,2334.8914,S,04629.4035,W,115441.00,A,A*75
$GNGSA,A,3,08,10,18,27,28,32,,,,,,,1.9,1.1,1.6,1*30
$GNGSA,A,3,67,68,81,82,,,,,,,,,1.9,1.1,1.6,2*31
$GPGSV,3,1,10,08,36,228,43,10,46,163,41,16,,,20,18,21,084,37,0*51
$GPGSV,3,2,10,21,,,29,23,,,33,26,07,344,00,27,67,258,43,0*60
$GPGSV,3,3,10,28,10,023,19,32,72,049,44,,,,,,,,,0*6F
$GLGSV,2,1,06,66,07,151,,67,57,166,35,68,61,304,38,81,39,065,36,0*7A
$GLGSV,2,2,06,82,61,149,38,83,28,200,22,,,,,,,,,0*76
$GNRMC,115441.00,A,2334.8914,S,04629.4035,W,28.9,232.6,260323,,,A,V*08
$GNVTG,232.6,T,,M,28.9,N,53.5,K,A*16
$GNZDA,115441.00,26,03,2023,,*78
$GPGGA,115442.00,2334.8957,S,04629.4094,W,1,10,1.1,756.5,M,-3.5,M,,*7A
$GNGLL,2334.8957,S,04629.4094,W,115442.00,A,A*7A
$GNGSA,A,3,08,10,18,27,28,32,,,,,,,1.9,1.1,1.6,1*30
$GNGSA,A,3,67,68,81,82,,,,,,,,,1.9,1.1,1.6,2*31
$GPGSV,3,1,10,08,36,228,43,10,46,163,41,16,,,33,18,21,084,39,0*5D
$GPGSV,3,2,10,21,,,37,23,,,33,26,07,344,00,27,67,258,44,0*68
$GPGSV,3,3,10,28,10,023,18,32,72,049,44,,,,,,,,,0*6E
$GLGSV,2,1,06,66,07,151,14,67,57,166,36,68,61,304,38,81,39,065,35,0*7F
$GLGSV,2,2,06,82,61,149,38,83,28,200,00,,,,,,,,,0*76
$GNRMC,115442.00,A,2334.8957,S,04629.4094,W,26.8,232.3,260323,,,A,V*0D
$GNVTG,232.3,T,,M,26.8,N,49.7,K,A*15
$GNZDA,115442.00,26,03,2023,,*7B
$GPGGA,115443.00,2334.8992,S,04629.4143,W,1,10,1.1,756.8,M,-3.5,M,,*74
$GNGLL,2334.8992,S,04629.4143,W,115443.00,A,A*79
$GNGSA,A,3,08,10,18,27,28,32,,,,,,,1.9,1.1,1.6,1*30
$GNGSA,A,3,67,68,81,82,,,,,,,,,1.9,1.1,1.6,2*31
$GPGSV,3,1,10,08,36,228,43,10,46,163,42,16,,,37,18,21,084,41,0*55
$GPGSV,3,2,10,21,,,36,23,,,32,26,07,344,,27,67,258,44,0*68
$GPGSV,3,3,10,28,10,023,19,32,72,049,44,,,,,,,,,0*6F
$GLGSV,2,1,06,66,07,151,11,67,57,166,37,68,61,304,38,81,39,065,36,0*78
$GLGSV,2,2,06,82,61,149,39,83,28,200,21,,,,,,,,,0*74
$GNRMC,115443.00,A,2334.8992,S,04629.4143,W,23.2,232.2,260323,,,A,V*00
$GNVTG,232.2,T,,M,23.2,N,43.0,K,A*16
$GNZDA,115443.00,26,03,2023,,*7A
$GPGGA,115444.00,2334.9019,S,04629.4181,W,1,10,1.1,756.7,M,-3.5,M,,*79
$GNGLL,2334.9019,S,04629.4181,W,115444.00,A,A*7B
$GNGSA,A,3,08,10,18,27,28,32,,,,,,,1.9,1.1,1.6,1*30
$GNGSA,A,3,67,68,81,82,,,,,,,,,1.9,1.1,1.6,2*31
$GPGSV,3,1,10,08,36,228,42,10,46,163,42,16,,,38,18,21,084,41,0*5B
$GPGSV,3,2,10,21,,,35,23,,,28,26,07,344,14,27,67,258,44,0*65
$GPGSV,3,3,10,28,10,023,16,32,72,049,42,,,,,,,,,0*66
$GLGSV,2,1,06,66,07,151,11,67,57,166,36,68,61,304,38,81,39,065,36,0*79
$GLGSV,2,2,06,82,61,149,38,83,28,200,22,,,,,,,,,0*76
$GNRMC,115444.00,A,2334.9019,S,04629.4181,W,18.5,233.1,260323,,,A,V*0F
$GNVTG,233.1,T,,M,18.5,N,34.3,K,A*18
$GNZDA,115444.00,26,03,2023,,*7D
$GPGGA,115445.00,2334.9037,S,04629.4207,W,1,10,1.1,756.8,M,-3.5,M,,*76
$GNGLL,2334.9037,S,04629.4207,W,115445.00,A,A*7B
$GNGSA,A,3,08,10,18,27,28,32,,,,,,,1.9,1.1,1.6,1*30
$GNGSA,A,3,67,68,81,82,,,,,,,,,1.9,1.1,1.6,2*31
$GPGSV,3,1,10,08,36,228,42,10,46,163,41,16,,,31,18,21,084,39,0*5E
$GPGSV,3,2,10,21,,,36,23,,,35,26,07,344,13,27,67,258,44,0*6D
$GPGSV,3,3,10,28,10,023,18,32,72,049,43,,,,,,,,,0*69
$GLGSV,2,1,06,66,07,151,11,67,57,166,36,68,61,304,38,81,39,065,36,0*79
$GLGSV,2,2,06,82,61,149,38,83,28,200,21,,,,,,,,,0*75
$GNRMC,115445.00,A,2334.9037,S,04629.4207,W,13.3,233.5,260323,,,A,V*06
$GNVTG,233.5,T,,M,13.3,N,24.6,K,A*15
$GNZDA,115445.00,26,03,2023,,*7C
$GPGGA,115446.00,2334.9048,S,04629.4223,W,1,10,1.1,756.9,M,-3.5,M,,*7A
$GNGLL,2334.9048,S,04629.4223,W,115446.00,A,A*76
$GNGSA,A,3,08,10,18,27,28,32,,,,,,,1.9,1.1,1.6,1*30
$GNGSA,A,3,67,68,81,82,,,,,,,,,1.9,1.1,1.6,2*31
$GPGSV,3,1,10,08,36,228,42,10,46,163,42,16,,,29,18,21,084,41,0*5B
$GPGSV,3,2,10,21,,,35,23,,,38,26,07,344,00,27,67,258,44,0*61
$GPGSV,3,3,10,28,10,023,19,32,72,049,44,,,,,,,,,0*6F
$GLGSV,2,1,06,66,07,151,00,67,57,166,35,68,61,304,38,81,39,065,36,0*7A
$GLGSV,2,2,06,82,61,149,38,83,28,200,21,,,,,,,,,0*75
$GNRMC,115446.00,A,2334.9048,S,04629.4223,W,9.2,233.3,260323,,,A,V*37
$GNVTG,233.3,T,,M,9.2,N,17.0,K,A*2F
$GNZDA,115446.00,26,03,2023,,*7F
$GPGGA,115447.00,2334.9055,S,04629.4231,W,1,10,1.1,757.1,M,-3.5,M,,*7D
$GNGLL,2334.9055,S,04629.4231,W,115447.00,A,A*78
$GNGSA,A,3,08,10,18,27,28,32,,,,,,,1.9,1.1,1.6,1*30
$GNGSA,A,3,67,68,81,82,,,,,,,,,1.9,1.1,1.6,2*31
$GPGSV,3,1,10,08,36,228,43,10,46,163,41,16,,,31,18,21,084,41,0*50
$GPGSV,3,2,10,21,,,36,23,,,39,26,07,344,19,27,67,258,44,0*6B
$GPGSV,3,3,10,28,10,023,17,32,72,049,45,,,,,,,,,0*60
$GLGSV,2,1,06,66,07,151,00,67,57,166,35,68,61,304,38,81,39,065,36,0*7A
$GLGSV,2,2,06,82,61,149,37,83,28,200,20,,,,,,,,,0*7B
$GNRMC,115447.00,A,2334.9055,S,04629.4231,W,5.5,233.4,260323,,,A,V*35
$GNVTG,233.4,T,,M,5.5,N,10.3,K,A*27
$GNZDA,115447.00,26,03,2023,,*7E
$GPGGA,115448.00,2334.9058,S,04629.4235,W,1,10,1.1,757.0,M,-3.5,M,,*7A
$GNGLL,2334.9058,S,04629.4235,W,115448.00,A,A*7E
$GNGSA,A,3,08,10,18,27,28,32,,,,,,,1.9,1.1,1.6,1*30
$GNGSA,A,3,67,68,81,82,,,,,,,,,1.9,1.1,1.6,2*31
$GPGSV,3,1,10,08,36,228,42,10,46,163,43,16,,,26,18,21,084,40,0*54
$GPGSV,3,2,10,21,,,38,23,,,41,26,07,344,06,27,67,258,45,0*65
$GPGSV,3,3,10,28,10,023,18,32,72,049,45,,,,,,,,,0*6F
$GLGSV,2,1,06,66,07,151,00,67,57,166,38,68,61,304,37,81,39,065,37,0*79
$GLGSV,2,2,06,82,61,149,39,83,28,200,22,,,,,,,,,0*77
$GNRMC,115448.00,A,2334.9058,S,04629.4235,W,2.4,235.9,260323,,,A,V*3E
$GNVTG,235.9,T,,M,2.4,N,4.5,K,A*19
$GNZDA,115448.00,26,03,2023,,*71
$GPGGA,115449.00,2334.9059,S,04629.4237,W,1,10,1.1,756.9,M,-3.5,M,,*70
$GNGLL,2334.9059,S,04629.4237,W,115449.00,A,A*7C
$GNGSA,A,3,08,10,18,27,28,32,,,,,,,1.9,1.1,1.6,1*30
$GNGSA,A,3,67,68,81,82,,,,,,,,,1.9,1.1,1.6,2*31
$GPGSV,3,1,10,08,36,228,42,10,46,163,43,16,,,26,18,21,084,39,0*5A
$GPGSV,3,2,10,21,,,39,23,,,42,26,07,344,00,27,67,258,45,0*61
$GPGSV,3,3,10,28,10,023,16,32,72,049,44,,,,,,,,,0*60
$GLGSV,2,1,06,66,06,151,00,67,57,166,38,68,61,304,37,81,39,065,37,0*78
$GLGSV,2,2,06,82,61,149,40,83,28,200,22,,,,,,,,,0*79
$GNRMC,115449.00,A,2334.9059,S,04629.4237,W,0.0,235.9,260323,,,A,V*3A
$GNVTG,235.9,T,,M,0.0,N,0.0,K,A*1E
$GNZDA,115449.00,26,03,2023,,*70
$GPGGA,115450.00,2334.9059,S,04629.4237,W,1,10,1.1,756.9,M,-3.5,M,,*78
$GNGLL,2334.9059,S,04629.4237,W,115450.00,A,A*74
$GNGSA,A,3,08,10,18,27,28,32,,,,,,,1.9,1.1,1.6,1*30
$GNGSA,A,3,67,68,81,82,,,,,,,,,1.9,1.1,1.6,2*31
$GPGSV,3,1,10,08,36,228,42,10,46,163,43,16,,,26,18,21,084,39,0*5A
$GPGSV,3,2,10,21,,,39,23,,,43,26,07,344,00,27,67,258,45,0*60
$GPGSV,3,3,10,28,10,023,17,32,72,049,44,,,,,,,,,0*61
$GLGSV,2,1,06,66,06,151,00,67,57,166,38,68,61,304,37,81,39,065,37,0*78
$GLGSV,2,2,06,82,61,149,39,83,28,200,23,,,,,,,,,0*76
$GNRMC,115450.00,A,2334.9059,S,04629.4237,W,0.0,235.9,260323,,,A,V*32
$GNVTG,235.9,T,,M,0.0,N,0.0,K,A*1E
$GNZDA,115450.00,26,03,2023,,*78
$GPGGA,115451.00,2334.9059,S,04629.4237,W,1,10,1.1,756.9,M,-3.5,M,,*79
$GNGLL,2334.9059,S,04629.4237,W,115451.00,A,A*75
$GNGSA,A,3,08,10,18,27,28,32,,,,,,,1.9,1.1,1.6,1*30
$GNGSA,A,3,67,68,81,82,,,,,,,,,1.9,1.1,1.6,2*31
$GPGSV,3,1,10,08,36,228,42,10,46,163,43,16,,,26,18,21,084,39,0*5A
$GPGSV,3,2,10,21,,,39,23,,,42,26,07,344,00,27,67,258,45,0*61
$GPGSV,3,3,10,28,10,023,14,32,72,049,44,,,,,,,,,0*62
$GLGSV,2,1,06,66,06,151,00,67,57,166,38,68,61,304,37,81,39,065,37,0*78
$GLGSV,2,2,06,82,61,149,39,83,28,200,23,,,,,,,,,0*76
$GNRMC,115451.00,A,2334.9059,S,04629.4237,W,0.0,235.9,260323,,,A,V*33
$GNVTG,235.9,T,,M,0.0,N,0.0,K,A*1E
$GNZDA,115451.00,26,03,2023,,*79
$GPGGA,115452.00,2334.9059,S,04629.4237,W,1,10,1.1,756.8,M,-3.5,M,,*7B
$GNGLL,2334.9059,S,04629.4237,W,115452.00,A,A*76
$GNGSA,A,3,08,10,18,27,28,32,,,,,,,1.9,1.1,1.6,1*30
$GNGSA,A,3,67,68,81,82,,,,,,,,,1.9,1.1,1.6,2*31
$GPGSV,3,1,10,08,36,228,42,10,46,163,44,16,,,27,18,21,084,40,0*52
$GPGSV,3,2,10,21,,,39,23,,,43,26,07,344,00,27,67,258,45,0*60
$GPGSV,3,3,10,28,10,023,11,32,72,049,44,,,,,,,,,0*67
$GLGSV,2,1,06,66,06,151,00,67,57,166,39,68,61,304,36,81,39,065,38,0*77
$GLGSV,2,2,06,82,61,149,39,83,28,200,21,,,,,,,,,0*74
$GNRMC,115452.00,A,2334.9059,S,04629.4237,W,0.0,235.9,260323,,,A,V*30
$GNVTG,235.9,T,,M,0.0,N,0.0,K,A*1E
$GNZDA,115452.00,26,03,2023,,*7A
$GPGGA,115453.00,2334.9058,S,04629.4237,W,1,09,1.3,756.7,M,-3.5,M,,*7E
$GNGLL,2334.9058,S,04629.4237,W,115453.00,A,A*76
$GNGSA,A,3,08,10,18,27,32,,,,,,,,2.5,1.3,2.1,1*33
$GNGSA,A,3,67,68,81,82,,,,,,,,,2.5,1.3,2.1,2*38
$GPGSV,3,1,10,08,36,228,43,10,46,163,44,16,,,27,18,21,084,39,0*5D
$GPGSV,3,2,10,21,,,39,23,,,43,26,07,344,00,27,67,258,46,0*63
$GPGSV,3,3,10,28,10,023,04,32,72,049,44,,,,,,,,,0*63
$GLGSV,2,1,06,66,06,151,00,67,57,166,38,68,61,304,36,81,39,065,37,0*79
$GLGSV,2,2,06,82,61,149,39,83,28,200,22,,,,,,,,,0*77
$GNRMC,115453.00,A,2334.9058,S,04629.4237,W,0.0,235.9,260323,,,A,V*30
$GNVTG,235.9,T,,M,0.0,N,0.0,K,A*1E
$GNZDA,115453.00,26,03,2023,,*7B
$GPGGA,115454.00,2334.9058,S,04629.4237,W,1,10,1.1,756.7,M,-3.5,M,,*73
$GNGLL,2334.9058,S,04629.4237,W,115454.00,A,A*71
$GNGSA,A,3,08,10,18,27,28,32,,,,,,,1.9,1.1,1.6,1*30
$GNGSA,A,3,67,68,81,82,,,,,,,,,1.9,1.1,1.6,2*31
$GPGSV,3,1,10,08,36,228,43,10,46,163,44,16,,,25,18,21,084,38,0*5E
$GPGSV,3,2,10,21,,,40,23,,,43,26,07,344,00,27,67,258,46,0*6D
$GPGSV,3,3,10,28,10,023,13,32,72,049,45,,,,,,,,,0*64
$GLGSV,2,1,06,66,06,151,00,67,57,166,38,68,61,304,37,81,39,065,37,0*78
$GLGSV,2,2,06,82,61,149,39,83,28,200,21,,,,,,,,,0*74
$GNRMC,115454.00,A,2334.9058,S,04629.4237,W,0.0,235.9,260323,,,A,V*37
$GNVTG,235.9,T,,M,0.0,N,0.0,K,A*1E
$GNZDA,115454.00,26,03,2023,,*7C
$GPGGA,115455.00,2334.9058,S,04629.4237,W,1,10,1.1,756.6,M,-3.5,M,,*73
$GNGLL,2334.9058,S,04629.4237,W,115455.00,A,A*70
$GNGSA,A,3,08,10,18,27,28,32,,,,,,,1.9,1.1,1.6,1*30
$GNGSA,A,3,67,68,81,82,,,,,,,,,1.9,1.1,1.6,2*31
$GPGSV,3,1,10,08,36,228,43,10,46,163,44,16,,,25,18,21,084,38,0*5E
$GPGSV,3,2,10,21,,,39,23,,,43,26,07,344,00,27,67,258,46,0*63
$GPGSV,3,3,10,28,10,023,19,32,72,049,45,,,,,,,,,0*6E
$GLGSV,2,1,06,66,06,151,,67,57,166,38,68,61,304,37,81,39,065,37,0*78
$GLGSV,2,2,06,82,61,149,39,83,28,200,22,,,,,,,,,0*77
$GNRMC,115455.00,A,2334.9058,S,04629.4237,W,0.0,235.9,260323,,,A,V*36
$GNVTG,235.9,T,,M,0.0,N,0.0,K,A*1E
$GNZDA,115455.00,26,03,2023,,*7D
$GPGGA,115456.00,2334.9058,S,04629.4237,W,1,10,1.1,756.6,M,-3.5,M,,*70
$GNGLL,2334.9058,S,04629.4237,W,115456.00,A,A*73
$GNGSA,A,3,08,10,18,27,28,32,,,,,,,1.9,1.1,1.6,1*30
$GNGSA,A,3,67,68,81,82,,,,,,,,,1.9,1.1,1.6,2*31
$GPGSV,3,1,10,08,36,228,43,10,46,163,43,16,,,23,18,21,084,38,0*5F
$GPGSV,3,2,10,21,,,39,23,,,43,26,07,344,00,27,67,258,46,0*63
$GPGSV,3,3,10,28,10,023,19,32,72,049,45,,,,,,,,,0*6E
$GLGSV,2,1,06,66,06,151,,67,57,166,38,68,61,304,37,81,39,065,37,0*78
$GLGSV,2,2,06,82,61,149,39,83,28,200,23,,,,,,,,,0*76
$GNRMC,115456.00,A,2334.9058,S,04629.4237,W,0.0,235.9,260323,,,A,V*35
$GNVTG,235.9,T,,M,0.0,N,0.0,K,A*1E
$GNZDA,115456.00,26,03,2023,,*7E
$GPGGA,115457.00,2334.9057,S,04629.4237,W,1,10,1.1,756.6,M,-3.5,M,,*7E
$GNGLL,2334.9057,S,04629.4237,W,115457.00,A,A*7D
$GNGSA,A,3,08,10,18,27,28,32,,,,,,,1.9,1.1,1.6,1*30
$GNGSA,A,3,67,68,81,82,,,,,,,,,1.9,1.1,1.6,2*31
$GPGSV,3,1,10,08,36,228,43,10,46,163,43,16,,,24,18,21,084,39,0*59
$GPGSV,3,2,10,21,,,40,23,,,43,26,07,344,00,27,67,258,46,0*6D
$GPGSV,3,3,10,28,10,023,19,32,72,049,45,,,,,,,,,0*6E
$GLGSV,2,1,06,66,06,151,25,67,56,166,37,68,61,304,37,81,39,065,37,0*71
$GLGSV,2,2,06,82,61,149,39,83,28,200,22,,,,,,,,,0*77
$GNRMC,115457.00,A,2334.9057,S,04629.4237,W,0.0,235.9,260323,,,A,V*3B
$GNVTG,235.9,T,,M,0.0,N,0.0,K,A*1E
$GNZDA,115457.00,26,03,2023,,*7F
$GPGGA,115458.00,2334.9057,S,04629.4237,W,1,10,1.1,756.6,M,-3.5,M,,*71
$GNGLL,2334.9057,S,04629.4237,W,115458.00,A,A*72
$GNGSA,A,3,08,10,18,27,28,32,,,,,,,2.0,1.1,1.6,1*3A
$GNGSA,A,3,67,68,81,82,,,,,,,,,2.0,1.1,1.6,2*3B
$GPGSV,3,1,10,08,36,228,42,10,46,163,43,16,,,25,18,21,084,38,0*58
$GPGSV,3,2,10,21,,,40,23,,,43,26,07,344,00,27,67,258,46,0*6D
$GPGSV,3,3,10,28,10,023,18,32,72,049,45,,,,,,,,,0*6F
$GLGSV,2,1,06,66,06,151,23,67,56,166,37,68,61,304,37,81,39,065,37,0*77
$GLGSV,2,2,06,82,61,149,38,83,28,200,22,,,,,,,,,0*76
$GNRMC,115458.00,A,2334.9057,S,04629.4237,W,0.0,235.9,260323,,,A,V*34
$GNVTG,235.9,T,,M,0.0,N,0.0,K,A*1E
$GNZDA,115458.00,26,03,2023,,*70
$GPGGA,115459.00,2334.9057,S,04629.4238,W,1,10,1.1,756.7,M,-3.5,M,,*7E
$GNGLL,2334.9057,S,04629.4238,W,115459.00,A,A*7C
$GNGSA,A,3,08,10,18,27,28,32,,,,,,,2.0,1.1,1.6,1*3A
$GNGSA,A,3,67,68,81,82,,,,,,,,,2.0,1.1,1.6,2*3B
$GPGSV,3,1,10,08,36,228,42,10,46,163,43,16,,,25,18,21,084,38,0*58
$GPGSV,3,2,10,21,,,39,23,,,43,26,07,344,00,27,67,258,46,0*63
$GPGSV,3,3,10,28,10,023,15,32,72,049,46,,,,,,,,,0*61
$GLGSV,2,1,06,66,06,151,21,67,56,166,37,68,61,304,37,81,39,065,36,0*74
$GLGSV,2,2,06,82,61,149,39,83,28,200,21,,,,,,,,,0*74
$GNRMC,115459.00,A,2334.9057,S,04629.4238,W,0.0,235.9,260323,,,A,V*3A
$GNVTG,235.9,T,,M,0.0,N,0.0,K,A*1E
$GNZDA,115459.00,26,03,2023,,*71
$GPGGA,115500.00,2334.9057,S,04629.4238,W,1,10,1.1,756.7,M,-3.5,M,,*73
$GNGLL,2334.9057,S,04629.4238,W,115500.00,A,A*71
$GNGSA,A,3,08,10,18,27,28,32,,,,,,,2.0,1.1,1.6,1*3A
$GNGSA,A,3,67,68,81,82,,,,,,,,,2.0,1.1,1.6,2*3B
$GPGSV,3,1,10,08,36,228,42,10,46,163,43,16,,,24,18,21,084,38,0*59
$GPGSV,3,2,10,21,,,39,23,,,43,26,07,344,00,27,67,258,46,0*63
$GPGSV,3,3,10,28,10,023,16,32,72,049,45,,,,,,,,,0*61
$GLGSV,2,1,06,66,06,151,21,67,56,166,38,68,61,304,37,81,39,065,36,0*7B
$GLGSV,2,2,06,82,61,149,39,83,28,200,22,,,,,,,,,0*77
$GNRMC,115500.00,A,2334.9057,S,04629.4238,W,0.0,235.9,260323,,,A,V*37
$GNVTG,235.9,T,,M,0.0,N,0.0,K,A*1E
$GNZDA,115500.00,26,03,2023,,*7C
$GPGGA,115501.00,2334.9057,S,04629.4238,W,1,09,1.3,756.7,M,-3.5,M,,*78
$GNGLL,2334.9057,S,04629.4238,W,115501.00,A,A*70
$GNGSA,A,3,08,10,18,27,32,,,,,,,,2.5,1.3,2.1,1*33
$GNGSA,A,3,67,68,81,82,,,,,,,,,2.5,1.3,2.1,2*38
$GPGSV,3,1,10,08,36,228,42,10,46,163,43,16,,,23,18,21,084,38,0*5E
$GPGSV,3,2,10,21,,,39,23,,,43,26,07,344,00,27,67,258,46,0*63
$GPGSV,3,3,10,28,10,023,00,32,72,049,46,,,,,,,,,0*65
$GLGSV,2,1,06,66,06,151,23,67,56,166,38,68,61,304,37,81,39,065,37,0*78
$GLGSV,2,2,06,82,61,149,39,83,28,200,20,,,,,,,,,0*75
$GNRMC,115501.00,A,2334.9057,S,04629.4238,W,0.0,235.9,260323,,,A,V*36
$GNVTG,235.9,T,,M,0.0,N,0.0,K,A*1E
$GNZDA,115501.00,26,03,2023,,*7D
$GPGGA,115502.00,2334.9057,S,04629.4238,W,1,12,0.9,756.7,M,-3.5,M,,*7A
$GNGLL,2334.9057,S,04629.4238,W,115502.00,A,A*73
$GNGSA,A,3,08,10,18,21,23,27,28,32,,,,,1.3,0.9,1.0,1*37
$GNGSA,A,3,67,68,81,82,,,,,,,,,1.3,0.9,1.0,2*34
$GPGSV,3,1,10,08,36,228,42,10,46,163,43,16,,,22,18,21,084,38,0*5F
$GPGSV,3,2,10,21,06,230,39,23,20,135,43,26,07,344,00,27,67,258,46,0*61
$GPGSV,3,3,10,28,10,023,07,32,72,049,46,,,,,,,,,0*62
$GLGSV,2,1,06,66,06,151,24,67,56,166,38,68,61,304,37,81,39,065,37,0*7F
$GLGSV,2,2,06,82,61,149,39,83,28,200,22,,,,,,,,,0*77
$GNRMC,115502.00,A,2334.9057,S,04629.4238,W,0.0,235.9,260323,,,A,V*35
$GNVTG,235.9,T,,M,0.0,N,0.0,K,A*1E
$GNZDA,115502.00,26,03,2023,,*7E
$GPGGA,115503.00,2334.9057,S,04629.4238,W,1,12,0.9,756.7,M,-3.5,M,,*7B
$GNGLL,2334.9057,S,04629.4238,W,115503.00,A,A*72
$GNGSA,A,3,08,10,18,21,23,27,28,32,,,,,1.3,0.9,1.0,1*37
$GNGSA,A,3,67,68,81,82,,,,,,,,,1.3,0.9,1.0,2*34
$GPGSV,3,1,10,08,36,228,42,10,46,163,43,16,,,24,18,21,084,39,0*58
$GPGSV,3,2,10,21,06,230,38,23,20,135,43,26,07,344,00,27,67,258,46,0*60
$GPGSV,3,3,10,28,10,023,11,32,72,049,46,,,,,,,,,0*65
$GLGSV,2,1,06,66,06,151,25,67,56,166,39,68,61,304,38,81,39,065,37,0*70
$GLGSV,2,2,06,82,61,149,39,83,28,200,20,,,,,,,,,0*75
$GNRMC,115503.00,A,2334.9057,S,04629.4238,W,0.0,235.9,260323,,,A,V*34
$GNVTG,235.9,T,,M,0.0,N,0.0,K,A*1E
$GNZDA,115503.00,26,03,2023,,*7F
$GPGGA,115504.00,2334.9057,S,04629.4238,W,1,12,0.9,756.7,M,-3.5,M,,*7C
$GNGLL,2334.9057,S,04629.4238,W,115504.00,A,A*75
$GNGSA,A,3,08,10,18,21,23,27,28,32,,,,,1.3,0.9,1.0,1*37
$GNGSA,A,3,67,68,81,82,,,,,,,,,1.3,0.9,1.0,2*34
$GPGSV,3,1,10,08,36,228,43,10,46,163,43,16,,,24,18,21,084,39,0*59
$GPGSV,3,2,10,21,06,230,38,23,20,135,44,26,07,344,00,27,67,258,46,0*67
$GPGSV,3,3,10,28,10,023,12,32,72,049,46,,,,,,,,,0*66
$GLGSV,2,1,06,66,06,151,28,67,56,166,38,68,61,304,37,81,39,065,37,0*73
$GLGSV,2,2,06,82,61,149,39,83,28,200,20,,,,,,,,,0*75
$GNRMC,115504.00,A,2334.9057,S,04629.4238,W,0.0,235.9,260323,,,A,V*33
$GNVTG,235.9,T,,M,0.0,N,0.0,K,A*1E
$GNZDA,115504.00,26,03,2023,,*78
$GPGGA,115505.00,2334.9057,S,04629.4238,W,1,11,1.1,756.7,M,-3.5,M,,*77
$GNGLL,2334.9057,S,04629.4238,W,115505.00,A,A*74
$GNGSA,A,3,08,10,18,21,23,27,32,,,,,,1.6,1.1,1.2,1*33
$GNGSA,A,3,67,68,81,82,,,,,,,,,1.6,1.1,1.2,2*3A
$GPGSV,3,1,10,08,36,228,43,10,46,163,43,16,,,24,18,21,084,40,0*57
$GPGSV,3,2,10,21,06,230,38,23,20,135,43,26,07,344,,27,67,258,46,0*60
$GPGSV,3,3,10,28,10,023,00,32,72,049,46,,,,,,,,,0*65
$GLGSV,2,1,06,66,06,151,29,67,56,166,38,68,61,304,37,81,39,065,37,0*72
$GLGSV,2,2,06,82,61,149,39,83,28,200,21,,,,,,,,,0*74
$GNRMC,115505.00,A,2334.9057,S,04629.4238,W,0.0,235.9,260323,,,A,V*32
$GNVTG,235.9,T,,M,0.0,N,0.0,K,A*1E
$GNZDA,115505.00,26,03,2023,,*79
$GPGGA,115506.00,2334.9057,S,04629.4238,W,1,11,1.1,756.7,M,-3.5,M,,*74
$GNGLL,2334.9057,S,04629.4238,W,115506.00,A,A*77
$GNGSA,A,3,08,10,18,21,23,27,32,,,,,,1.6,1.1,1.2,1*33
$GNGSA,A,3,67,68,81,82,,,,,,,,,1.6,1.1,1.2,2*3A
$GPGSV,3,1,10,08,36,228,43,10,46,163,43,16,,,25,18,21,084,41,0*57
$GPGSV,3,2,10,21,06,230,38,23,20,135,43,26,07,344,00,27,67,258,46,0*60
$GPGSV,3,3,10,28,10,023,00,32,72,049,45,,,,,,,,,0*66
$GLGSV,2,1,06,66,06,151,29,67,56,166,38,68,61,304,37,81,39,065,38,0*7D
$GLGSV,2,2,06,82,61,149,39,83,28,200,22,,,,,,,,,0*77
$GNRMC,115506.00,A,2334.9057,S,04629.4238,W,0.0,235.9,260323,,,A,V*31
$GNVTG,235.9,T,,M,0.0,N,0.0,K,A*1E
$GNZDA,115506.00,26,03,2023,,*7A
$GPGGA,115507.00,2334.9057,S,04629.4238,W,1,11,1.1,756.7,M,-3.5,M,,*75
$GNGLL,2334.9057,S,04629.4238,W,115507.00,A,A*76
$GNGSA,A,3,08,10,18,21,23,27,32,,,,,,1.6,1.1,1.2,1*33
$GNGSA,A,3,67,68,81,82,,,,,,,,,1.6,1.1,1.2,2*3A
$GPGSV,3,1,10,08,36,228,44,10,46,163,44,16,,,32,18,21,084,43,0*53
$GPGSV,3,2,10,21,06,230,38,23,20,135,42,26,07,344,06,27,67,258,45,0*64
$GPGSV,3,3,10,28,10,023,17,32,72,050,45,,,,,,,,,0*68
$GLGSV,2,1,06,66,06,151,29,67,56,166,39,68,61,304,39,81,39,065,39,0*73
$GLGSV,2,2,06,82,61,149,40,83,28,200,23,,,,,,,,,0*78
$GNRMC,115507.00,A,2334.9057,S,04629.4238,W,0.0,235.9,260323,,,A,V*30
$GNVTG,235.9,T,,M,0.0,N,0.0,K,A*1E
$GNZDA,115507.00,26,03,2023,,*7B
$GPGGA,115508.00,2334.9058,S,04629.4240,W,1,12,0.9,756.7,M,-3.5,M,,*70
$GNGLL,2334.9058,S,04629.4240,W,115508.00,A,A*79
$GNGSA,A,3,08,10,18,21,23,27,28,32,,,,,1.3,0.9,1.0,1*37
$GNGSA,A,3,67,68,81,82,,,,,,,,,1.3,0.9,1.0,2*34
$GPGSV,3,1,10,08,36,228,44,10,46,163,44,16,,,29,18,21,084,43,0*59
$GPGSV,3,2,10,21,06,230,38,23,20,135,41,26,07,344,,27,67,258,46,0*62
$GPGSV,3,3,10,28,10,023,17,32,72,050,45,,,,,,,,,0*68
$GLGSV,2,1,06,66,06,151,27,67,56,166,39,68,61,304,40,81,39,065,39,0*73
$GLGSV,2,2,06,82,61,149,40,83,28,200,23,,,,,,,,,0*78
$GNRMC,115508.00,A,2334.9058,S,04629.4240,W,4.0,233.1,260323,,,A,V*35
$GNVTG,233.1,T,,M,4.0,N,7.3,K,A*10
$GNZDA,115508.00,26,03,2023,,*74
$GPGGA,115509.00,2334.9072,S,04629.4259,W,1,12,0.9,756.6,M,-3.5,M,,*70
$GNGLL,2334.9072,S,04629.4259,W,115509.00,A,A*78
$GNGSA,A,3,08,10,18,21,23,27,28,32,,,,,1.3,0.9,1.0,1*37
$GNGSA,A,3,67,68,81,82,,,,,,,,,1.3,0.9,1.0,2*34
$GPGSV,3,1,10,08,36,228,43,10,46,163,43,16,,,33,18,21,084,41,0*50
$GPGSV,3,2,10,21,06,230,37,23,20,135,40,26,07,344,00,27,67,258,45,0*6F
$GPGSV,3,3,10,28,10,023,15,32,72,050,45,,,,,,,,,0*6A
$GLGSV,2,1,06,66,06,151,26,67,56,166,38,68,61,304,39,81,39,065,38,0*7C
$GLGSV,2,2,06,82,61,149,39,83,28,200,22,,,,,,,,,0*77
$GNRMC,115509.00,A,2334.9072,S,04629.4259,W,7.7,232.7,260323,,,A,V*37
$GNVTG,232.7,T,,M,7.7,N,14.2,K,A*20
$GNZDA,115509.00,26,03,2023,,*75
$GPGGA,115510.00,2334.9087,S,04629.4281,W,1,12,0.9,756.6,M,-3.5,M,,*77
$GNGLL,2334.9087,S,04629.4281,W,115510.00,A,A*7F
$GNGSA,A,3,08,10,18,21,23,27,28,32,,,,,1.3,0.9,1.0,1*37
$GNGSA,A,3,67,68,81,82,,,,,,,,,1.3,0.9,1.0,2*34
$GPGSV,3,1,10,08,36,228,44,10,46,163,43,16,,,29,18,21,084,41,0*5C
$GPGSV,3,2,10,21,06,230,37,23,20,135,41,26,07,344,00,27,67,258,45,0*6E
$GPGSV,3,3,10,28,10,024,18,32,72,050,44,,,,,,,,,0*61
